#
#   Created by  : [OpenWorks] Log Export Utility (LEXP)
#   Created on  : 2002-11-13 08:57:04
#   Project     : NILE8
#   User        : TAREM1
#   Interpreter : MTR
#
#------------------------------------------------------------------------------
~VERSION INFORMATION
VERS. 2.0 : CWLS Log ASCII Standard - version 2.0
WRAP.  NO : One line per depth step
~WELL INFORMATION
#MNEMONIC   .UNIT                                           VALUE :DESCRIPTION
#------------------------------------------------------------------------------
STRT        .FT                                         3382.5393 :START DEPTH
STOP        .FT                                         7091.8491 :STOP DEPTH
STEP        .FT                                            0.3281 :STEP
NULL        .                                           -999.2500 :NULL VALUE
COMP        .                                                  BP :COMPANY
WELL        .                                             Ji 49-1 :WELL
FLD         .                                             UNKNOWN :FIELD
LOC         .                                             UNKNOWN :LOCATION
CNTY        .                                             UNKNOWN :COUNTY
STAT        .                                    NORTH ALEXANDRIA :STATE
CTRY        .                                               EGYPT :COUNTRY
SRVC        .                                             UNKNOWN :SERVICE COMPANY
DATE        .                                             UNKNOWN :LOG DATE
UWI         .                                        EGYPT2231100 :UNIQUE WELL ID
XCOORD      .                                       508206.000000 :SURFACE X
YCOORD      .                                      1015098.000000 :SURFACE Y
LAT         .                                           31.844903 :LATITUDE
LON         .                                           29.871761 :LONGITUDE
ELEV        .FT                                           75.4592 :SURFACE ELEV
ELEV_TYPE   .                                                  KB :ELEV TYPE
~CURVE INFORMATION
#MNEMONIC.UNIT        API CODE       : CURVE DESCRIPTION
#------------------------------------------------------------------------------
DEPTH    .FT                         : Measured Depth
CALI     .inches      UNKNOWN        : CALI:PETROWORKS:rC:NONE:v1 
DTCO     .us/ft       UNKNOWN        : DTCO:PETROWORKS:rC:NONE:v1 
DTSM     .us/ft       UNKNOWN        : DTSM:DTSM-Load:r1:MAIN:v2 
GR       .API         UNKNOWN        : GR:PETROWORKS:rC:NONE:v4 
NPHI     .v/v_decimal UNKNOWN        : NPHI:PETROWORKS:rC:NONE:v1 
RHOBED   .g/cm3       UNKNOWN        : RHOBED:PETROWORKS:rC:NONE:v5 
RS       .ohm-m       UNKNOWN        : RS:PETROWORKS:rC:NONE:v2 
RT       .ohm-m       UNKNOWN        : RT:PETROWORKS:rC:NONE:v2 
~A     DEPTH         CALI         DTCO         DTSM           GR         NPHI       RHOBED           RS           RT
# ...
   5374.6611      12.3700     172.7500    -999.2500      54.4900       0.5357       1.9950       0.9315       0.7200
   5374.9893      12.3630     172.7500    -999.2500      54.5400       0.5414       1.9970       0.9315       0.7200
   5375.3174      12.3550     172.7500    -999.2500      54.5900       0.5343       1.9990       0.9450       0.7300
   5375.6455      12.3480     172.7500    -999.2500      54.6400       0.5271       1.9960       0.9450       0.7400
   5375.9731      12.3450     172.2458    -999.2500      54.6900       0.5200       1.9930       0.9585       0.7400
   5376.3013      12.3430     172.2458    -999.2500      54.7400       0.5029       1.9900       0.9720       0.7500
   5376.6294      12.3380     172.2458    -999.2500      54.7900       0.4771       1.9870       0.9855       0.7600
   5376.9575      12.3760     172.2458    -999.2500      54.4250       0.4529       1.9845       0.9990       0.7700
   5377.2856      12.4540     172.2458    -999.2500      54.0600       0.4386       1.9820       1.0125       0.7800
   5377.6138      12.4810     172.5125    -999.2500      53.4650       0.4414       1.9790       1.0125       0.7800
   5377.9419      12.4660     172.5125    -999.2500      52.8700       0.4557       1.9760       0.9855       0.7600
   5378.2700      12.4550     172.5125    -999.2500      52.2700       0.4757       1.9745       0.9585       0.7400
   5378.5981      12.4410     175.3841    -999.2500      51.6700       0.5029       1.9730       0.8775       0.6800
   5378.9263      12.4240     174.3174    -999.2500      51.1150       0.5371       1.9720       0.8640       0.6700
   5379.2544      12.4160     174.0508    -999.2500      50.5600       0.5743       1.9710       0.8640       0.6700
   5379.5825      12.4170     173.2508    -999.2500      51.0550       0.6043       1.9695       0.8505       0.6600
   5379.9102      12.4170     173.0730    -999.2500      51.5500       0.6200       1.9680       0.8505       0.6600
   5380.2383      12.4120     173.0730    -999.2500      52.0450       0.6229       1.9665       0.8640       0.6700
   5380.5664      12.4050     173.0730    -999.2500      52.5400       0.6143       1.9650       0.8775       0.6900
   5380.8945      12.4050     173.0730    -999.2500      53.0400       0.5986       1.9650       0.8775       0.7000
   5381.2227      12.4080     171.9081    -999.2500      53.5400       0.5786       1.9650       0.8910       0.7100
   5381.5508      12.4100     171.9081    -999.2500      53.9750       0.5543       1.9650       0.8910       0.7100
   5381.8789      12.3920     171.3736    -999.2500      54.4100       0.5314       1.9650       0.9045       0.7100
   5382.2070      12.3480     170.8470    -999.2500      54.6650       0.5157       1.9650       0.9180       0.7100
   5382.5352      12.3360     170.8470    -999.2500      54.9200       0.5100       1.9650       0.9180       0.7200
   5382.8633      12.3550     170.7581    -999.2500      55.1750       0.5171       1.9615       0.9180       0.7300
   5383.1914      12.3510     170.2392    -999.2500      55.4300       0.5343       1.9580       0.9315       0.7300
   5383.5195      12.3430     170.1503    -999.2500      55.6900       0.5514       1.9540       0.9315       0.7400
   5383.8472      12.3550     170.1503    -999.2500      55.9500       0.5657       1.9500       0.9315       0.7400
   5384.1753      12.3580     170.1503    -999.2500      56.1650       0.5771       1.9465       0.9315       0.7400
   5384.5034      12.3680     169.5500    -999.2500      56.3800       0.5857       1.9430       0.9450       0.7400
   5384.8315      12.3980     169.2833    -999.2500      55.6300       0.5857       1.9435       0.9450       0.7400
   5385.1597      12.3990     168.6611    -999.2500      54.8800       0.5771       1.9440       0.9450       0.7500
   5385.4878      12.3750     168.4833    -999.2500      54.1300       0.5629       1.9460       0.9450       0.7500
   5385.8159      12.3490     168.2167    -999.2500      53.3800       0.5486       1.9480       0.9450       0.7500
   5386.1440      12.3400     168.2167    -999.2500      52.6350       0.5386       1.9495       0.9450       0.7500
   5386.4722      12.3540     168.2167    -999.2500      51.8900       0.5343       1.9510       0.9450       0.7500
   5386.8003      12.3590     168.2167    -999.2500      51.2350       0.5271       1.9520       0.9450       0.7500
   5387.1284      12.3170     168.2167    -999.2500      50.5800       0.5186       1.9530       0.9450       0.7500
   5387.4561      12.2820     168.2167    -999.2500      50.8700       0.5100       1.9537       0.9315       0.7400
   5387.7842      12.3250     168.2167    -999.2500      51.1600       0.5043       1.9543       0.9450       0.7300
   5388.1123      12.3850     168.4833    -999.2500      51.4500       0.5043       1.9550       0.9450       0.7300
   5388.4404      12.4080     168.5125    -999.2500      51.7400       0.5086       1.9557       0.9585       0.7300
   5388.7686      12.4160     168.5125    -999.2500      52.0300       0.5143       1.9563       0.9585       0.7400
   5389.0967      12.4080     168.0154    -999.2500      52.3200       0.5257       1.9570       0.9720       0.7500
   5389.4248      12.3910     167.5251    -999.2500      52.6100       0.5357       1.9577       1.0260       0.8000
   5389.7529      12.3760     167.5251    -999.2500      52.9000       0.5414       1.9583       1.0665       0.8400
   5390.0811      12.3720     167.5251    -999.2500      53.1900       0.5457       1.9590       1.0935       0.8700
   5390.4092      12.4070     167.5251    -999.2500      53.4800       0.5471       1.9597       1.1205       0.9000
   5390.7373      12.4620     167.5251    -999.2500      53.5550       0.5429       1.9603       1.1340       0.9200
   5391.0654      12.4770     166.7251    -999.2500      53.6300       0.5371       1.9610       1.1205       0.9100
   5391.3931      12.4690     166.0140    -999.2500      53.5250       0.5314       1.9617       1.0935       0.8800
   5391.7212      12.4700     164.5918    -999.2500      53.4200       0.5314       1.9623       0.9855       0.7800
   5392.0493      12.4820     165.0820    -999.2500      53.3100       0.5357       1.9630       0.8775       0.6700
   5392.3774      12.5020     165.0820    -999.2500      53.2000       0.5343       1.9637       0.8100       0.6200
   5392.7056      12.5000     165.0820    -999.2500      53.0900       0.5271       1.9643       0.8370       0.6500
   5393.0337      12.4810     165.0820    -999.2500      52.9800       0.5243       1.9650       0.8640       0.6700
   5393.3618      12.4770     165.0820    -999.2500      52.8700       0.5271       1.9657       0.8910       0.6900
   5393.6899      12.4930     165.0820    -999.2500      52.7600       0.5271       1.9663       0.9180       0.7200
   5394.0181      12.5070     165.0820    -999.2500      52.9600       0.5171       1.9670       0.9450       0.7400
   5394.3462      12.5120     167.3569    -999.2500      53.1600       0.4986       1.9677       0.9720       0.7600
   5394.6743      12.5170     168.5125    -999.2500      53.5650       0.4857       1.9683       0.9990       0.7800
   5395.0024      12.5160     168.7791    -999.2500      53.9700       0.4900       1.9690       1.0125       0.7900
   5395.3301      12.4990     169.0458    -999.2500      54.3750       0.5043       1.9785       0.9855       0.7600
   5395.6582      12.4780     169.3125    -999.2500      54.7800       0.5171       1.9880       0.9720       0.7400
   5395.9863      12.4780     170.1487    -999.2500      55.1950       0.5286       1.9975       0.9720       0.7400
   5396.3145      12.5040     170.6820    -999.2500      55.6100       0.5414       2.0070       0.9720       0.7400
   5396.6426      12.5320     170.6820    -999.2500      56.0350       0.5543       2.0150       0.9585       0.7300
   5396.9707      12.5490     171.0376    -999.2500      56.4600       0.5600       2.0230       0.9450       0.7100
