#
#   Created by  : [OpenWorks] Log Export Utility (LEXP)
#   Created on  : 2002-11-13 08:57:04
#   Project     : NILE8
#   User        : TAREM1
#   Interpreter : MTR
#
#------------------------------------------------------------------------------
~VERSION INFORMATION
VERS. 2.0 : CWLS Log ASCII Standard - version 2.0
WRAP.  NO : One line per depth step
~WELL INFORMATION
#MNEMONIC   .UNIT                                           VALUE :DESCRIPTION
#------------------------------------------------------------------------------
STRT        .FT                                         3382.5393 :START DEPTH
STOP        .FT                                         7091.8491 :STOP DEPTH
STEP        .FT                                            0.3281 :STEP
NULL        .                                           -999.2500 :NULL VALUE
COMP        .                                                  BP :COMPANY
WELL        .                                             Ji 49-1 :WELL
FLD         .                                             UNKNOWN :FIELD
LOC         .                                             UNKNOWN :LOCATION
CNTY        .                                             UNKNOWN :COUNTY
STAT        .                                    NORTH ALEXANDRIA :STATE
CTRY        .                                               EGYPT :COUNTRY
SRVC        .                                             UNKNOWN :SERVICE COMPANY
DATE        .                                             UNKNOWN :LOG DATE
UWI         .                                        EGYPT2231100 :UNIQUE WELL ID
XCOORD      .                                       508206.000000 :SURFACE X
YCOORD      .                                      1015098.000000 :SURFACE Y
LAT         .                                           31.844903 :LATITUDE
LON         .                                           29.871761 :LONGITUDE
ELEV        .FT                                           75.4592 :SURFACE ELEV
ELEV_TYPE   .                                                  KB :ELEV TYPE
~CURVE INFORMATION
#MNEMONIC.UNIT        API CODE       : CURVE DESCRIPTION
#------------------------------------------------------------------------------
DEPTH    .FT                         : Measured Depth
CALI     .inches      UNKNOWN        : CALI:PETROWORKS:rC:NONE:v1 
DTCO     .us/ft       UNKNOWN        : DTCO:PETROWORKS:rC:NONE:v1 
DTSM     .us/ft       UNKNOWN        : DTSM:DTSM-Load:r1:MAIN:v2 
GR       .API         UNKNOWN        : GR:PETROWORKS:rC:NONE:v4 
NPHI     .v/v_decimal UNKNOWN        : NPHI:PETROWORKS:rC:NONE:v1 
RHOBED   .g/cm3       UNKNOWN        : RHOBED:PETROWORKS:rC:NONE:v5 
RS       .ohm-m       UNKNOWN        : RS:PETROWORKS:rC:NONE:v2 
RT       .ohm-m       UNKNOWN        : RT:PETROWORKS:rC:NONE:v2 
~A     DEPTH         CALI         DTCO         DTSM           GR         NPHI       RHOBED           RS           RT
# ...
   5623.6763      12.1590     169.7736    -999.2500      49.3500       0.5414       1.9950       0.9180       0.7100
   5624.0044      12.1780     169.7736    -999.2500      49.0900       0.5414       1.9880       0.9045       0.7100
   5624.3325      12.1940     169.2470    -999.2500      49.3150       0.5343       1.9810       0.9045       0.7100
   5624.6606      12.2070     169.2470    -999.2500      49.5400       0.5229       1.9740       0.9045       0.7100
   5624.9888      12.1980     169.2470    -999.2500      49.7700       0.5157       1.9700       0.9045       0.7000
   5625.3169      12.1760     169.7736    -999.2500      50.0000       0.5243       1.9660       0.9045       0.7000
   5625.6445      12.1820     169.7736    -999.2500      50.2250       0.5457       1.9675       0.9045       0.7100
   5625.9727      12.1940     169.7736    -999.2500      50.4500       0.5657       1.9690       0.9180       0.7200
   5626.3008      12.1940     169.7736    -999.2500      50.5900       0.5829       1.9705       0.9315       0.7300
   5626.6289      12.2050     169.2470    -999.2500      50.7300       0.5957       1.9720       0.9180       0.7200
   5626.9570      12.2340     169.2470    -999.2500      50.8500       0.6014       1.9735       0.9180       0.7100
   5627.2852      12.2610     169.2470    -999.2500      50.9700       0.5971       1.9750       0.9045       0.7100
   5627.6133      12.2580     169.3359    -999.2500      51.0950       0.5843       1.9750       0.9045       0.7000
   5627.9414      12.2470     169.3359    -999.2500      51.2200       0.5657       1.9750       0.9180       0.7200
   5628.2695      12.2320     169.3359    -999.2500      51.3400       0.5529       1.9730       0.9180       0.7100
   5628.5977      12.1960     169.3359    -999.2500      51.4600       0.5571       1.9710       0.9315       0.7200
   5628.9258      12.1510     169.3359    -999.2500      51.4950       0.5771       1.9695       0.9450       0.7300
   5629.2539      12.1280     169.3359    -999.2500      51.5300       0.5971       1.9680       0.9585       0.7500
   5629.5815      12.1350     169.3359    -999.2500      51.4600       0.6086       1.9670       0.9720       0.7700
   5629.9097      12.1350     170.0470    -999.2500      51.3900       0.6157       1.9660       0.9585       0.7600
   5630.2378      12.1390     171.0392    -999.2500      51.3150       0.6214       1.9690       0.9585       0.7500
   5630.5659      12.1880     173.2615    -999.2500      51.2400       0.6229       1.9720       0.9180       0.7200
   5630.8940      12.2370     174.5948    -999.2500      51.1650       0.6114       1.9745       0.9180       0.7100
   5631.2222      12.2380     175.3059    -999.2500      51.0900       0.5857       1.9770       0.9180       0.7200
   5631.5503      12.2230     175.3948    -999.2500      51.0750       0.5657       1.9790       0.9180       0.7100
   5631.8784      12.2190     175.4837    -999.2500      51.0600       0.5629       1.9810       0.9180       0.7200
   5632.2065      12.2210     175.4837    -999.2500      51.0600       0.5671       1.9830       0.9315       0.7200
   5632.5347      12.2240     175.4837    -999.2500      51.0600       0.5714       1.9850       0.9315       0.7300
   5632.8628      12.2310     175.4837    -999.2500      51.0600       0.5686       1.9865       0.9315       0.7400
   5633.1904      12.2500     175.4837    -999.2500      51.0600       0.5586       1.9880       0.9315       0.7400
   5633.5186      12.2690     175.4837    -999.2500      50.8800       0.5529       1.9845       0.9315       0.7300
   5633.8467      12.2730     175.4837    -999.2500      50.7000       0.5529       1.9810       0.9315       0.7300
   5634.1748      12.2720     175.4837    -999.2500      50.3950       0.5514       1.9775       0.9315       0.7300
   5634.5029      12.2700     175.0392    -999.2500      50.0900       0.5429       1.9740       0.9315       0.7300
   5634.8311      12.2680     174.3874    -999.2500      49.7900       0.5329       1.9705       0.9180       0.7200
   5635.1592      12.2660     172.9948    -999.2500      49.4900       0.5343       1.9670       0.9315       0.7300
   5635.4873      12.2600     172.2837    -999.2500      49.4700       0.5500       1.9700       0.9315       0.7400
   5635.8154      12.2560     172.2837    -999.2500      49.4500       0.5700       1.9730       0.9315       0.7500
   5636.1436      12.2540     171.9137    -999.2500      49.4900       0.5843       1.9780       0.9315       0.7400
   5636.4717      12.2510     171.9070    -999.2500      49.5300       0.5929       1.9830       0.9045       0.7200
   5636.7998      12.2610     172.4415    -999.2500      49.9800       0.6000       1.9795       0.8640       0.6800
   5637.1274      12.2770     171.3748    -999.2500      50.4300       0.6014       1.9760       0.8910       0.6900
   5637.4556      12.2590     171.3748    -999.2500      50.6100       0.5929       1.9630       0.8775       0.6800
   5637.7837      12.2030     171.3748    -999.2500      50.7900       0.5757       1.9500       0.8775       0.7000
   5638.1118      12.1650     171.3748    -999.2500      50.3250       0.5557       1.9485       0.8775       0.6900
   5638.4399      12.1620     172.3526    -999.2500      49.8600       0.5371       1.9470       0.8910       0.7000
   5638.7681      12.1810     172.3526    -999.2500      49.3900       0.5214       1.9600       0.8910       0.6900
   5639.0962      12.2380     172.3526    -999.2500      48.9200       0.5071       1.9730       0.8775       0.6900
   5639.4243      12.2940     172.3526    -999.2500      49.0100       0.4943       2.0055       0.8775       0.6900
   5639.7524      12.2830     172.3526    -999.2500      49.1000       0.4843       2.0380       0.8775       0.6800
   5640.0806      12.2430     170.2611    -999.2500      49.1950       0.4757       2.0550       0.9450       0.7400
   5640.4087      12.2360     168.9043    -999.2500      49.2900       0.4700       2.0720       0.9720       0.7700
   5640.7368      12.2660     167.2162    -999.2500      49.3250       0.4686       2.0745       1.0125       0.8000
   5641.0645      12.3040     164.5667    -999.2500      49.3600       0.4771       2.0770       1.0800       0.8400
   5641.3926      12.3180     163.2582    -999.2500      49.0450       0.4971       2.0790       1.1340       0.8800
   5641.7207      12.3170     162.8325    -999.2500      48.7300       0.5214       2.0810       1.1205       0.8700
   5642.0488      12.3100     161.1790    -999.2500      48.4150       0.5457       2.0780       1.1880       0.9200
   5642.3770      12.2990     160.7049    -999.2500      48.1000       0.5657       2.0750       1.1880       0.9300
   5642.7051      12.2810     159.4737    -999.2500      48.1200       0.5729       2.0725       1.2015       0.9400
   5643.0332      12.2730     158.3654    -999.2500      48.1400       0.5686       2.0700       1.2150       0.9500
   5643.3613      12.3080     157.5358    -999.2500      48.3950       0.5571       2.0700       1.2420       0.9700
   5643.6895      12.3600     156.4319    -999.2500      48.6500       0.5400       2.0700       1.2555       0.9700
   5644.0176      12.3860     155.4838    -999.2500      48.7800       0.5200       2.0700       1.2555       0.9600
   5644.3457      12.3860     154.7727    -999.2500      48.9100       0.4971       2.0700       1.2555       0.9500
   5644.6738      12.3950     153.9430    -999.2500      48.9100       0.4786       2.0700       1.2420       0.9500
   5645.0015      12.3940     153.2912    -999.2500      48.9100       0.4700       2.0700       1.2420       0.9600
   5645.3296      12.3330     153.2912    -999.2500      48.8950       0.4657       2.0700       1.2150       0.9300
   5645.6577      12.2810     153.2319    -999.2500      48.8800       0.4557       2.0700       1.2285       0.9500
   5645.9858      12.2890     153.6247    -999.2500      48.6900       0.4400       2.0680       1.2420       0.9700
