#
#   Created by  : [OpenWorks] Log Export Utility (LEXP)
#   Created on  : 2002-11-13 08:57:04
#   Project     : NILE8
#   User        : TAREM1
#   Interpreter : MTR
#
#------------------------------------------------------------------------------
~VERSION INFORMATION
VERS. 2.0 : CWLS Log ASCII Standard - version 2.0
WRAP.  NO : One line per depth step
~WELL INFORMATION
#MNEMONIC   .UNIT                                           VALUE :DESCRIPTION
#------------------------------------------------------------------------------
STRT        .FT                                         3382.5393 :START DEPTH
STOP        .FT                                         7091.8491 :STOP DEPTH
STEP        .FT                                            0.3281 :STEP
NULL        .                                           -999.2500 :NULL VALUE
COMP        .                                                  BP :COMPANY
WELL        .                                             Ji 49-1 :WELL
FLD         .                                             UNKNOWN :FIELD
LOC         .                                             UNKNOWN :LOCATION
CNTY        .                                             UNKNOWN :COUNTY
STAT        .                                    NORTH ALEXANDRIA :STATE
CTRY        .                                               EGYPT :COUNTRY
SRVC        .                                             UNKNOWN :SERVICE COMPANY
DATE        .                                             UNKNOWN :LOG DATE
UWI         .                                        EGYPT2231100 :UNIQUE WELL ID
XCOORD      .                                       508206.000000 :SURFACE X
YCOORD      .                                      1015098.000000 :SURFACE Y
LAT         .                                           31.844903 :LATITUDE
LON         .                                           29.871761 :LONGITUDE
ELEV        .FT                                           75.4592 :SURFACE ELEV
ELEV_TYPE   .                                                  KB :ELEV TYPE
~CURVE INFORMATION
#MNEMONIC.UNIT        API CODE       : CURVE DESCRIPTION
#------------------------------------------------------------------------------
DEPTH    .FT                         : Measured Depth
CALI     .inches      UNKNOWN        : CALI:PETROWORKS:rC:NONE:v1 
DTCO     .us/ft       UNKNOWN        : DTCO:PETROWORKS:rC:NONE:v1 
DTSM     .us/ft       UNKNOWN        : DTSM:DTSM-Load:r1:MAIN:v2 
GR       .API         UNKNOWN        : GR:PETROWORKS:rC:NONE:v4 
NPHI     .v/v_decimal UNKNOWN        : NPHI:PETROWORKS:rC:NONE:v1 
RHOBED   .g/cm3       UNKNOWN        : RHOBED:PETROWORKS:rC:NONE:v5 
RS       .ohm-m       UNKNOWN        : RS:PETROWORKS:rC:NONE:v2 
RT       .ohm-m       UNKNOWN        : RT:PETROWORKS:rC:NONE:v2 
~A     DEPTH         CALI         DTCO         DTSM           GR         NPHI       RHOBED           RS           RT
# ...
   6619.7373       8.5920     173.4406     432.6742      58.8871       0.4084       2.0930       1.0260       1.3119
   6620.0654       8.5959     174.0713     433.7430      58.2486       0.4043       2.0928       1.0038       1.2543
   6620.3931       8.6119     174.6243     436.9511      58.0094       0.4062       2.0922       1.0005       1.2568
   6620.7212       8.6050     176.0849     437.8622      57.7045       0.4215       2.0897       1.0098       1.2687
   6621.0493       8.5905     177.5613     437.9442      57.5198       0.4371       2.0867       1.0179       1.2639
   6621.3774       8.5825     177.5897     438.3708      57.9524       0.4319       2.0854       0.9993       1.1735
   6621.7056       8.5816     177.1714     438.5124      58.0110       0.4575       2.0815       0.9890       1.1791
   6622.0337       8.5823     176.5290     438.5124      58.4261       0.4937       2.0761       0.9829       1.2277
   6622.3618       8.5716     175.8744     438.5124      62.0678       0.5020       2.0702       0.9773       1.2487
   6622.6899       8.5675     175.6017     438.5124      62.7690       0.5004       2.0676       0.9722       1.2664
   6623.0181       8.5675     175.5228     438.5124      61.8331       0.4919       2.0672       0.9663       1.2804
   6623.3462       8.5675     175.0657     438.5124      62.4707       0.4745       2.0692       0.9503       1.2796
   6623.6743       8.5721     173.9335     437.1792      61.5547       0.4673       2.0674       0.9563       1.2447
   6624.0024       8.5802     172.2943     434.8719      59.5725       0.4667       2.0625       0.9796       1.1866
   6624.3301       8.5882     170.6167     433.0335      59.4728       0.4486       2.0520       1.0194       1.1690
   6624.6582       8.5836     168.7307     432.1584      58.9900       0.4383       2.0432       1.0708       1.1585
   6624.9863       8.5675     166.6554     432.1584      58.1581       0.4353       2.0360       1.1327       1.1545
   6625.3145       8.5675     170.3342     432.1584      57.9208       0.4216       2.0353       1.1246       1.4241
   6625.6426       8.5675     171.1388     431.6996      57.8183       0.3981       2.0369       1.1037       1.4646
   6625.9707       8.5675     168.7793     430.7358      57.8642       0.3637       2.0408       1.0690       1.2528
   6626.2988       8.5675     169.5253     430.6895      56.4947       0.3135       2.0460       1.0900       1.7429
   6626.6270       8.5641     170.3115     430.6895      55.6581       0.2780       2.0468       1.1077       1.8733
   6626.9551       8.5561     170.9421     430.6895      55.6290       0.2634       2.0415       1.1169       1.4758
   6627.2832       8.5481     171.0643     431.5609      55.0521       0.2750       2.0440       1.1170       1.3674
   6627.6113       8.5492     171.1325     432.2747      54.8946       0.3114       2.0480       1.0971       1.2768
   6627.9390       8.5652     171.2007     432.5806      55.5164       0.3841       2.0532       1.0463       1.1651
   6628.2671       8.5675     171.2689     432.7612      52.6761       0.4076       2.0675       1.0247       1.1849
   6628.5952       8.5675     170.5563     433.6487      51.1481       0.4273       2.0782       1.0088       1.1931
   6628.9233       8.5675     168.2725     436.0009      53.4321       0.4564       2.0789       0.9942       1.1331
   6629.2515       8.5675     167.8172     438.1078      54.6717       0.4545       2.0732       0.9917       1.1087
   6629.5796       8.5675     167.8070     440.0704      56.7452       0.4490       2.0663       0.9924       1.0974
   6629.9077       8.5675     167.8238     441.8158      61.5468       0.4530       2.0604       0.9943       1.0976
   6630.2358       8.5675     165.5856     442.2347      62.3018       0.4589       2.0590       0.9979       1.1297
   6630.5640       8.5675     164.4875     442.2347      61.8534       0.4717       2.0599       1.0007       1.1707
   6630.8921       8.5675     169.3850     442.2347      61.6462       0.5054       2.0639       0.9993       1.2082
   6631.2202       8.5599     169.6049     442.2347      61.7634       0.5113       2.0683       0.9939       1.2326
   6631.5483       8.5532     168.1442     442.2347      61.4749       0.5024       2.0720       0.9873       1.2518
   6631.8760       8.5639     167.5975     442.2347      58.8680       0.4778       2.0720       0.9818       1.2716
   6632.2041       8.5675     167.3822     442.2347      58.5816       0.4531       2.0729       0.9850       1.3025
   6632.5322       8.5668     167.1377     441.9943      59.2010       0.4321       2.0743       0.9911       1.3277
   6632.8604       8.5614     165.6827     440.2771      58.1787       0.4335       2.0762       0.9873       1.2841
   6633.1885       8.5577     165.3858     439.3136      58.8537       0.4329       2.0786       0.9732       1.2652
   6633.5166       8.5560     165.8878     438.8034      60.4105       0.4332       2.0812       0.9524       1.2594
   6633.8447       8.5640     167.1507     438.1295      60.2212       0.4567       2.0831       0.9280       1.2315
   6634.1729       8.5675     169.4751     437.7968      60.6629       0.4689       2.0851       0.9245       1.2111
   6634.5010       8.5675     172.4736     437.6959      61.5216       0.4719       2.0871       0.9372       1.1977
   6634.8291       8.5675     172.5740     436.9927      61.0147       0.4621       2.0884       0.9605       1.2157
   6635.1572       8.5675     173.9123     435.6211      61.0826       0.4486       2.0893       0.9848       1.2339
   6635.4854       8.5675     176.4032     433.6243      61.6833       0.4316       2.0900       1.0103       1.2524
   6635.8130       8.5675     176.2963     432.8630      60.3482       0.4253       2.0900       1.0194       1.2945
   6636.1411       8.5726     176.4433     432.0298      59.6567       0.4181       2.0903       1.0229       1.3018
   6636.4692       8.5833     176.8750     431.1196      59.6914       0.4099       2.0910       1.0201       1.2701
   6636.7974       8.5736     175.3973     427.8286      59.0209       0.4130       2.0873       1.0147       1.2223
   6637.1255       8.5743     174.0519     425.5774      58.8118       0.4147       2.0839       1.0118       1.2129
   6637.4536       8.5904     173.0287     424.9163      59.2824       0.4135       2.0813       1.0123       1.2567
   6637.7817       8.5920     172.0495     424.1891      59.6485       0.3968       2.0798       1.0164       1.2597
   6638.1099       8.6041     168.7497     423.5604      59.6476       0.3850       2.0800       1.0215       1.2596
   6638.4380       8.6362     161.5905     423.1072      59.0582       0.3845       2.0826       1.0279       1.2616
   6638.7661       8.6683     160.4668     422.2625      59.0792       0.3951       2.0847       1.0349       1.3049
   6639.0942       8.6899     160.4400     420.3958      59.5963       0.4071       2.0879       1.0398       1.3371
   6639.4224       8.6899     160.5126     416.5746      60.9134       0.4179       2.0938       1.0400       1.3317
   6639.7500       8.7028     161.1207     415.8257      62.1936       0.4113       2.1008       1.0310       1.3204
   6640.0781       8.7173     161.7769     415.8257      63.1097       0.4042       2.1099       1.0174       1.3058
   6640.4062       8.7280     162.2209     415.8257      63.1173       0.4067       2.1236       0.9978       1.2867
   6640.7344       8.7347     165.0307     415.8257      62.5516       0.4191       2.1359       1.0256       1.2673
   6641.0625       8.7488     167.7686     415.8257      60.9760       0.4349       2.1468       1.0654       1.2588
   6641.3906       8.7915     167.7413     415.8257      56.6809       0.4508       2.1547       1.0940       1.2867
   6641.7188       8.8362     169.9063     415.8257      54.3275       0.4294       2.1537       1.0701       1.3349
   6642.0469       8.8852     172.3033     416.2851      52.7294       0.4003       2.1470       1.0334       1.3759
