#
#   Created by  : [OpenWorks] Log Export Utility (LEXP)
#   Created on  : 2002-11-13 08:57:04
#   Project     : NILE8
#   User        : TAREM1
#   Interpreter : MTR
#
#------------------------------------------------------------------------------
~VERSION INFORMATION
VERS. 2.0 : CWLS Log ASCII Standard - version 2.0
WRAP.  NO : One line per depth step
~WELL INFORMATION
#MNEMONIC   .UNIT                                           VALUE :DESCRIPTION
#------------------------------------------------------------------------------
STRT        .FT                                         3382.5393 :START DEPTH
STOP        .FT                                         7091.8491 :STOP DEPTH
STEP        .FT                                            0.3281 :STEP
NULL        .                                           -999.2500 :NULL VALUE
COMP        .                                                  BP :COMPANY
WELL        .                                             Ji 49-1 :WELL
FLD         .                                             UNKNOWN :FIELD
LOC         .                                             UNKNOWN :LOCATION
CNTY        .                                             UNKNOWN :COUNTY
STAT        .                                    NORTH ALEXANDRIA :STATE
CTRY        .                                               EGYPT :COUNTRY
SRVC        .                                             UNKNOWN :SERVICE COMPANY
DATE        .                                             UNKNOWN :LOG DATE
UWI         .                                        EGYPT2231100 :UNIQUE WELL ID
XCOORD      .                                       508206.000000 :SURFACE X
YCOORD      .                                      1015098.000000 :SURFACE Y
LAT         .                                           31.844903 :LATITUDE
LON         .                                           29.871761 :LONGITUDE
ELEV        .FT                                           75.4592 :SURFACE ELEV
ELEV_TYPE   .                                                  KB :ELEV TYPE
~CURVE INFORMATION
#MNEMONIC.UNIT        API CODE       : CURVE DESCRIPTION
#------------------------------------------------------------------------------
DEPTH    .FT                         : Measured Depth
CALI     .inches      UNKNOWN        : CALI:PETROWORKS:rC:NONE:v1 
DTCO     .us/ft       UNKNOWN        : DTCO:PETROWORKS:rC:NONE:v1 
DTSM     .us/ft       UNKNOWN        : DTSM:DTSM-Load:r1:MAIN:v2 
GR       .API         UNKNOWN        : GR:PETROWORKS:rC:NONE:v4 
NPHI     .v/v_decimal UNKNOWN        : NPHI:PETROWORKS:rC:NONE:v1 
RHOBED   .g/cm3       UNKNOWN        : RHOBED:PETROWORKS:rC:NONE:v5 
RS       .ohm-m       UNKNOWN        : RS:PETROWORKS:rC:NONE:v2 
RT       .ohm-m       UNKNOWN        : RT:PETROWORKS:rC:NONE:v2 
~A     DEPTH         CALI         DTCO         DTSM           GR         NPHI       RHOBED           RS           RT
# ...
   5487.8496      12.3300     170.9526    -999.2500      52.9250       0.5086       2.0115       0.9990       0.7700
   5488.1777      12.3330     170.9526    -999.2500      52.8600       0.5286       2.0110       0.9990       0.7700
   5488.5059      12.3380     170.9526    -999.2500      52.8000       0.5429       2.0065       0.9990       0.7800
   5488.8340      12.3310     170.9526    -999.2500      52.7400       0.5500       2.0020       1.0125       0.7800
   5489.1621      12.3220     170.9526    -999.2500      52.8000       0.5557       1.9975       1.0125       0.7800
   5489.4902      12.3240     170.9526    -999.2500      52.8600       0.5629       1.9930       0.9990       0.7700
   5489.8184      12.3310     172.4236    -999.2500      53.0500       0.5700       1.9885       0.9585       0.7400
   5490.1465      12.3310     172.7500    -999.2500      53.2400       0.5729       1.9840       0.9450       0.7400
   5490.4746      12.3290     172.7500    -999.2500      53.4250       0.5714       1.9805       0.9450       0.7300
   5490.8027      12.3290     172.7500    -999.2500      53.6100       0.5657       1.9770       0.9450       0.7300
   5491.1304      12.3280     172.7500    -999.2500      53.8000       0.5571       1.9770       0.9450       0.7300
   5491.4585      12.3270     173.2615    -999.2500      53.9900       0.5471       1.9770       0.9315       0.7300
   5491.7866      12.3240     173.4392    -999.2500      54.1800       0.5386       1.9770       0.9315       0.7200
   5492.1147      12.3200     173.7948    -999.2500      54.3700       0.5371       1.9770       0.9315       0.7200
   5492.4429      12.3240     175.3736    -999.2500      54.5600       0.5486       1.9770       0.9045       0.7000
   5492.7710      12.3290     175.9970    -999.2500      54.7500       0.5671       1.9770       0.8910       0.6900
   5493.0991      12.3310     176.6286    -999.2500      54.7050       0.5829       1.9785       0.8775       0.6900
   5493.4272      12.3320     176.6286    -999.2500      54.6600       0.5943       1.9800       0.8775       0.6900
   5493.7554      12.3390     176.7174    -999.2500      54.5550       0.5971       1.9820       0.8775       0.6900
   5494.0835      12.3530     176.9841    -999.2500      54.4500       0.5900       1.9840       0.8775       0.6800
   5494.4116      12.3530     177.2508    -999.2500      54.3450       0.5729       1.9860       0.8640       0.6800
   5494.7397      12.3530     177.8018    -999.2500      54.2400       0.5471       1.9880       0.8775       0.6900
   5495.0674      12.3420     177.8018    -999.2500      54.1350       0.5200       1.9870       0.8640       0.6800
   5495.3955      12.3280     177.8018    -999.2500      54.0300       0.5000       1.9860       0.8640       0.6800
   5495.7236      12.3030     177.8018    -999.2500      53.9300       0.4900       1.9850       0.8640       0.6800
   5496.0518      12.2860     177.8907    -999.2500      53.8300       0.4943       1.9840       0.8640       0.6800
   5496.3799      12.2890     177.8907    -999.2500      53.8300       0.5086       1.9830       0.8640       0.6800
   5496.7080      12.3070     177.8907    -999.2500      53.8300       0.5229       1.9820       0.8640       0.6800
   5497.0361      12.3330     178.0685    -999.2500      53.8900       0.5329       1.9805       0.8640       0.6800
   5497.3643      12.3290     177.8907    -999.2500      53.9500       0.5414       1.9790       0.8505       0.6700
   5497.6924      12.2980     178.4505    -999.2500      54.0100       0.5500       1.9780       0.8505       0.6700
   5498.0205      12.2820     178.3616    -999.2500      54.0700       0.5543       1.9770       0.8505       0.6700
   5498.3486      12.2780     178.3616    -999.2500      54.1250       0.5471       1.9770       0.8640       0.6800
   5498.6768      12.2660     178.9303    -999.2500      54.1800       0.5300       1.9770       0.8370       0.6600
   5499.0044      12.2500     179.5083    -999.2500      54.2950       0.5129       1.9770       0.8100       0.6400
   5499.3325      12.2410     179.5083    -999.2500      54.4100       0.4986       1.9770       0.7965       0.6300
   5499.6606      12.2390     179.1527    -999.2500      54.8600       0.4900       1.9770       0.8100       0.6300
   5499.9888      12.2360     178.1749    -999.2500      55.3100       0.4886       1.9770       0.8100       0.6300
   5500.3169      12.2380     176.9305    -999.2500      55.7550       0.4900       1.9770       0.8235       0.6400
   5500.6450      12.2490     176.1305    -999.2500      56.2000       0.4929       1.9770       0.8235       0.6400
   5500.9731      12.2700     175.7749    -999.2500      56.6500       0.4986       1.9770       0.8235       0.6500
   5501.3013      12.2930     175.7749    -999.2500      57.1000       0.5071       1.9770       0.8235       0.6500
   5501.6294      12.3070     175.7749    -999.2500      57.5500       0.5186       1.9770       0.8235       0.6500
   5501.9575      12.3130     175.1970    -999.2500      58.0000       0.5286       1.9770       0.8370       0.6500
   5502.2856      12.3210     175.1970    -999.2500      58.1900       0.5400       1.9770       0.8370       0.6500
   5502.6133      12.3220     175.1970    -999.2500      58.3800       0.5543       1.9770       0.8370       0.6500
   5502.9414      12.3130     174.6283    -999.2500      58.0700       0.5686       1.9770       0.8505       0.6600
   5503.2695      12.3070     174.0685    -999.2500      57.7600       0.5786       1.9770       0.8640       0.6700
   5503.5977      12.3070     174.2463    -999.2500      57.4550       0.5886       1.9770       0.8640       0.6800
   5503.9258      12.3080     174.2463    -999.2500      57.1500       0.6029       1.9770       0.8640       0.6700
   5504.2539      12.3080     174.3352    -999.2500      56.8450       0.6186       1.9770       0.8640       0.6700
   5504.5820      12.3090     174.4241    -999.2500      56.5400       0.6243       1.9770       0.8640       0.6700
   5504.9102      12.3170     174.5130    -999.2500      56.1200       0.6214       1.9770       0.8775       0.6800
   5505.2383      12.3310     174.5130    -999.2500      55.7000       0.6157       1.9770       0.8775       0.6800
   5505.5664      12.3410     174.5130    -999.2500      55.2600       0.6114       1.9765       0.8775       0.6800
   5505.8945      12.3370     174.5130    -999.2500      54.8200       0.6057       1.9760       0.8640       0.6800
   5506.2227      12.3260     174.5130    -999.2500      54.3800       0.5957       1.9745       0.8640       0.6700
   5506.5503      12.3220     174.9838    -999.2500      53.9400       0.5843       1.9730       0.8505       0.6600
   5506.8784      12.3240     174.8950    -999.2500      53.9150       0.5743       1.9715       0.8370       0.6600
   5507.2065      12.3210     174.8950    -999.2500      53.8900       0.5714       1.9700       0.8370       0.6600
   5507.5347      12.3140     174.8061    -999.2500      53.9800       0.5743       1.9690       0.8370       0.6700
   5507.8628      12.3090     175.1970    -999.2500      54.0700       0.5814       1.9680       0.8505       0.6700
   5508.1909      12.3090     175.0192    -999.2500      54.1550       0.5914       1.9665       0.8505       0.6700
   5508.5190      12.3080     174.9303    -999.2500      54.2400       0.6071       1.9650       0.8505       0.6600
   5508.8472      12.3020     174.9303    -999.2500      54.3300       0.6300       1.9635       0.8370       0.6500
   5509.1753      12.2850     174.9303    -999.2500      54.4200       0.6671       1.9620       0.8370       0.6500
   5509.5034      12.2670     174.9303    -999.2500      54.5050       0.7043       1.9605       0.8235       0.6400
   5509.8315      12.2600     174.3616    -999.2500      54.5900       0.7243       1.9590       0.8370       0.6500
   5510.1597      12.2590     174.2727    -999.2500      54.6800       0.7271       1.9575       0.8370       0.6500
