#
#   Created by  : [OpenWorks] Log Export Utility (LEXP)
#   Created on  : 2002-11-13 08:57:04
#   Project     : NILE8
#   User        : TAREM1
#   Interpreter : MTR
#
#------------------------------------------------------------------------------
~VERSION INFORMATION
VERS. 2.0 : CWLS Log ASCII Standard - version 2.0
WRAP.  NO : One line per depth step
~WELL INFORMATION
#MNEMONIC   .UNIT                                           VALUE :DESCRIPTION
#------------------------------------------------------------------------------
STRT        .FT                                         3382.5393 :START DEPTH
STOP        .FT                                         7091.8491 :STOP DEPTH
STEP        .FT                                            0.3281 :STEP
NULL        .                                           -999.2500 :NULL VALUE
COMP        .                                                  BP :COMPANY
WELL        .                                             Ji 49-1 :WELL
FLD         .                                             UNKNOWN :FIELD
LOC         .                                             UNKNOWN :LOCATION
CNTY        .                                             UNKNOWN :COUNTY
STAT        .                                    NORTH ALEXANDRIA :STATE
CTRY        .                                               EGYPT :COUNTRY
SRVC        .                                             UNKNOWN :SERVICE COMPANY
DATE        .                                             UNKNOWN :LOG DATE
UWI         .                                        EGYPT2231100 :UNIQUE WELL ID
XCOORD      .                                       508206.000000 :SURFACE X
YCOORD      .                                      1015098.000000 :SURFACE Y
LAT         .                                           31.844903 :LATITUDE
LON         .                                           29.871761 :LONGITUDE
ELEV        .FT                                           75.4592 :SURFACE ELEV
ELEV_TYPE   .                                                  KB :ELEV TYPE
~CURVE INFORMATION
#MNEMONIC.UNIT        API CODE       : CURVE DESCRIPTION
#------------------------------------------------------------------------------
DEPTH    .FT                         : Measured Depth
CALI     .inches      UNKNOWN        : CALI:PETROWORKS:rC:NONE:v1 
DTCO     .us/ft       UNKNOWN        : DTCO:PETROWORKS:rC:NONE:v1 
DTSM     .us/ft       UNKNOWN        : DTSM:DTSM-Load:r1:MAIN:v2 
GR       .API         UNKNOWN        : GR:PETROWORKS:rC:NONE:v4 
NPHI     .v/v_decimal UNKNOWN        : NPHI:PETROWORKS:rC:NONE:v1 
RHOBED   .g/cm3       UNKNOWN        : RHOBED:PETROWORKS:rC:NONE:v5 
RS       .ohm-m       UNKNOWN        : RS:PETROWORKS:rC:NONE:v2 
RT       .ohm-m       UNKNOWN        : RT:PETROWORKS:rC:NONE:v2 
~A     DEPTH         CALI         DTCO         DTSM           GR         NPHI       RHOBED           RS           RT
# ...
   6234.8955      10.3534     163.9999     470.9156      45.5537       0.6218       2.0572       0.8370       0.9408
   6235.2236      10.3842     163.3792     469.7979      46.9216       0.6451       2.0576       0.8100       0.8996
   6235.5518      10.4244     162.4604     467.6931      47.8837       0.6692       2.0580       0.8235       0.8514
   6235.8799      10.4538     162.4506     466.5277      44.9910       0.7071       2.0584       0.7965       0.8564
   6236.2075      10.5228     161.2247     462.9353      44.2291       0.7112       2.0588       0.7965       0.8295
   6236.5356      10.6170     159.3433     458.0410      44.6844       0.6982       2.0593       0.8100       0.7865
   6236.8638      10.7454     157.1053     452.4722      46.1745       0.6813       2.0597       0.8100       0.7404
   6237.1919      10.9290     156.2741     449.7687      49.1752       0.6609       2.0581       0.8100       0.7287
   6237.5200      11.1317     156.2990     448.9218      52.6016       0.6407       2.0540       0.8100       0.7361
   6237.8481      11.2093     156.3981     449.2449      52.1508       0.6418       2.0540       0.8100       0.7304
   6238.1763      11.2253     156.5456     449.6657      51.9674       0.6453       2.0638       0.8100       0.7375
   6238.5044      11.1989     156.7200     450.1780      52.0386       0.6511       2.0810       0.8235       0.7542
   6238.8325      11.2283     156.7311     451.0469      53.1946       0.6677       2.0993       0.8235       0.7744
   6239.1606      11.3369     157.6235     453.6860      54.5619       0.6784       2.1080       0.8370       0.7851
   6239.4888      11.5154     159.2969     457.8907      56.0944       0.6837       2.1080       0.8235       0.7872
   6239.8169      11.6632     160.6558     461.7993      57.2254       0.7077       2.0909       0.8235       0.8354
   6240.1445      11.6986     161.8457     465.3245      56.1340       0.7194       2.0795       0.8235       0.8241
   6240.4727      11.6129     162.8582     468.4513      52.6321       0.7180       2.0742       0.8100       0.7483
   6240.8008      11.5197     162.9658     469.0887      51.3783       0.7421       2.0934       0.7965       0.7788
   6241.1289      11.4677     163.2524     469.9655      50.7799       0.7615       2.1169       0.7965       0.7851
   6241.4570      11.4704     163.8290     471.3078      50.9163       0.7731       2.1445       0.7965       0.7531
   6241.7852      11.3734     163.6269     470.8666      54.7973       0.7965       2.1452       0.7965       0.7694
   6242.1133      11.2582     163.4120     470.1491      56.9028       0.7993       2.1322       0.8235       0.7755
   6242.4414      11.1297     163.3028     469.2783      55.4872       0.7670       2.0194       0.8235       0.7577
   6242.7695      11.0151     161.5121     465.1718      55.3707       0.7324       2.0173       0.8235       0.7348
   6243.0977      10.9351     160.2867     462.1052      55.1761       0.7041       2.0152       0.8100       0.7845
   6243.4258      10.9191     160.7192     462.1345      54.4035       0.6889       2.0131       0.7965       0.9790
   6243.7539      11.0291     160.6879     461.8923      56.3538       0.6933       2.0110       0.7965       1.0701
   6244.0815      11.1620     160.5060     461.4613      58.0875       0.6981       2.0089       0.7830       1.1235
   6244.4097      11.2797     160.2173     460.7188      57.7928       0.6927       2.0068       0.7830       1.1428
   6244.7378      11.3565     160.0642     460.2928      57.0244       0.6838       2.0047       0.7830       1.1426
   6245.0659      11.4168     159.9988     460.0714      56.2286       0.6727       2.0078       0.7965       1.1357
   6245.3940      11.4650     160.0786     460.1879      55.7990       0.6583       2.0120       0.7965       1.1268
   6245.7222      11.4710     160.0611     460.1564      55.4366       0.6491       2.0162       0.7965       1.1224
   6246.0503      11.4459     160.0200     460.0836      54.7695       0.6439       2.0204       0.8100       1.1158
   6246.3784      11.3603     160.0412     460.0834      52.7010       0.6463       2.0197       0.8640       1.0917
   6246.7065      11.1710     160.0006     460.0511      52.2327       0.6548       2.0182       0.8640       1.0349
   6247.0347      10.9170     160.0038     460.1558      52.3897       0.6629       2.0168       0.8775       0.9574
   6247.3628      10.5854     160.4499     461.1684      51.4518       0.6504       2.0154       0.8640       0.8541
   6247.6904      10.4329     160.6284     461.6400      50.0053       0.6350       2.0053       0.8505       0.7801
   6248.0186      10.3738     160.5847     461.6536      48.2991       0.6190       1.9948       0.8775       0.7327
   6248.3467      10.1625     159.9932     460.4754      46.9986       0.6128       1.9959       0.8910       0.7674
   6248.6748       9.8532     159.9866     460.3989      47.2180       0.6170       2.0213       0.8775       0.7651
   6249.0029       9.4850     160.3896     461.0900      48.7461       0.6290       2.0466       0.8910       0.7410
   6249.3311       9.4021     160.2359     460.6580      52.5904       0.6392       2.0504       0.8775       0.8327
   6249.6592       9.3808     160.0571     460.1479      55.9528       0.6301       2.0523       0.8910       0.8868
   6249.9873       9.4156     159.8556     459.5669      58.8475       0.6034       2.0530       0.8775       0.9067
   6250.3154       9.4210     159.6925     459.0634      61.0095       0.6072       2.0556       0.8640       0.8877
   6250.6436       9.4353     159.5157     458.5475      62.1454       0.6140       2.0564       0.8775       0.8824
   6250.9717       9.4593     159.3241     458.0181      62.1527       0.6242       2.0551       0.8640       0.8923
   6251.2998       9.3764     159.4651     458.5863      60.9145       0.6517       2.0587       0.8775       0.8812
   6251.6274       9.2778     159.7843     459.5651      59.9969       0.6542       2.0618       0.8775       0.8812
   6251.9556       9.1655     160.3191     461.0185      59.6004       0.6220       2.0638       0.8775       0.8972
   6252.2837       9.5757     161.0162     462.7716      58.7908       0.5981       2.0652       0.8775       0.8986
   6252.6118       9.9720     161.4622     463.9988      57.7658       0.5842       2.0675       0.8775       0.9125
   6252.9399      10.2555     161.4705     464.3163      56.4367       0.5851       2.0714       0.8775       0.9494
   6253.2681      10.1703     161.3559     464.0862      55.6541       0.5891       2.0765       0.9045       0.9541
   6253.5962      10.2811     161.2578     463.8068      53.4211       0.5986       2.0817       0.8775       0.9371
   6253.9243      10.9095     161.2342     463.6132      48.3201       0.6182       2.0870       0.8775       0.8869
   6254.2524      10.8788     161.0143     463.0784      49.3096       0.6057       2.0832       0.8640       0.8800
   6254.5806      10.5957     160.8255     462.5761      51.5527       0.5936       2.0773       0.8640       0.8587
   6254.9087      10.0716     160.8329     462.3604      53.3932       0.6019       2.0714       0.8775       0.7752
   6255.2368       9.7220     160.5689     461.8185      57.1480       0.6140       2.0700       0.8775       0.7554
   6255.5645       9.5655     160.4028     461.5614      59.5570       0.6284       2.0706       0.8640       0.7700
   6255.8926       9.8543     160.8312     462.5594      55.4655       0.6461       2.0732       0.7745       0.8312
   6256.2207      10.1433     161.2400     463.6211      53.7434       0.6561       2.0721       0.7558       0.8247
   6256.5488      10.4444     161.5619     464.5268      52.9037       0.6597       2.0681       0.7658       0.7966
   6256.8770      10.7974     161.5422     464.6473      51.8183       0.6492       2.0583       0.7754       0.7933
   6257.2051      10.5040     161.6028     464.9038      54.1680       0.6345       2.0498       0.7744       0.7576
