#
#   Created by  : [OpenWorks] Log Export Utility (LEXP)
#   Created on  : 2002-11-13 08:57:04
#   Project     : NILE8
#   User        : TAREM1
#   Interpreter : MTR
#
#------------------------------------------------------------------------------
~VERSION INFORMATION
VERS. 2.0 : CWLS Log ASCII Standard - version 2.0
WRAP.  NO : One line per depth step
~WELL INFORMATION
#MNEMONIC   .UNIT                                           VALUE :DESCRIPTION
#------------------------------------------------------------------------------
STRT        .FT                                         3382.5393 :START DEPTH
STOP        .FT                                         7091.8491 :STOP DEPTH
STEP        .FT                                            0.3281 :STEP
NULL        .                                           -999.2500 :NULL VALUE
COMP        .                                                  BP :COMPANY
WELL        .                                             Ji 49-1 :WELL
FLD         .                                             UNKNOWN :FIELD
LOC         .                                             UNKNOWN :LOCATION
CNTY        .                                             UNKNOWN :COUNTY
STAT        .                                    NORTH ALEXANDRIA :STATE
CTRY        .                                               EGYPT :COUNTRY
SRVC        .                                             UNKNOWN :SERVICE COMPANY
DATE        .                                             UNKNOWN :LOG DATE
UWI         .                                        EGYPT2231100 :UNIQUE WELL ID
XCOORD      .                                       508206.000000 :SURFACE X
YCOORD      .                                      1015098.000000 :SURFACE Y
LAT         .                                           31.844903 :LATITUDE
LON         .                                           29.871761 :LONGITUDE
ELEV        .FT                                           75.4592 :SURFACE ELEV
ELEV_TYPE   .                                                  KB :ELEV TYPE
~CURVE INFORMATION
#MNEMONIC.UNIT        API CODE       : CURVE DESCRIPTION
#------------------------------------------------------------------------------
DEPTH    .FT                         : Measured Depth
CALI     .inches      UNKNOWN        : CALI:PETROWORKS:rC:NONE:v1 
DTCO     .us/ft       UNKNOWN        : DTCO:PETROWORKS:rC:NONE:v1 
DTSM     .us/ft       UNKNOWN        : DTSM:DTSM-Load:r1:MAIN:v2 
GR       .API         UNKNOWN        : GR:PETROWORKS:rC:NONE:v4 
NPHI     .v/v_decimal UNKNOWN        : NPHI:PETROWORKS:rC:NONE:v1 
RHOBED   .g/cm3       UNKNOWN        : RHOBED:PETROWORKS:rC:NONE:v5 
RS       .ohm-m       UNKNOWN        : RS:PETROWORKS:rC:NONE:v2 
RT       .ohm-m       UNKNOWN        : RT:PETROWORKS:rC:NONE:v2 
~A     DEPTH         CALI         DTCO         DTSM           GR         NPHI       RHOBED           RS           RT
# ...
   6732.9258       8.8572     149.0241     412.3654      56.6098       0.4826       2.1027       0.8499       0.8211
   6733.2539       8.7947     149.3550     421.3179      56.8178       0.5025       2.0966       0.8621       0.8689
   6733.5820       8.7242     149.8267     429.6841      57.0212       0.5167       2.0905       0.8745       0.9283
   6733.9102       8.7162     150.5741     431.7976      57.0876       0.5169       2.0852       0.8836       0.9626
   6734.2383       8.7143     151.3867     434.1295      56.8043       0.5222       2.0780       0.8947       0.9906
   6734.5664       8.7005     152.1725     436.3672      56.4648       0.5243       2.0709       0.9035       1.0047
   6734.8945       8.6443     152.8138     438.1089      56.2779       0.5118       2.0663       0.9036       0.9811
   6735.2227       8.6576     152.9984     438.4111      55.7516       0.5063       2.0645       0.9043       0.9301
   6735.5503       8.6983     152.6704     437.4518      55.1790       0.4993       2.0634       0.8950       0.8868
   6735.8784       8.7411     150.9679     433.6133      54.9486       0.4748       2.0601       0.8433       0.9188
   6736.2065       8.7641     150.4095     431.7744      54.2905       0.4812       2.0550       0.7901       0.8909
   6736.5347       8.8030     150.3354     430.9554      53.7473       0.5041       2.0491       0.7470       0.8401
   6736.8628       8.9877     149.8349     430.3887      55.0484       0.5346       2.0432       0.7658       0.8257
   6737.1909       8.9999     150.4297     431.8799      56.6723       0.5538       2.0459       0.7936       0.8301
   6737.5190       8.9013     151.5589     434.3155      58.5396       0.5618       2.0546       0.8239       0.8465
   6737.8472       8.7356     151.5589     434.0913      60.6527       0.5294       2.0710       0.8281       0.8690
   6738.1753       8.7070     151.0240     432.7321      59.0108       0.4931       2.0897       0.8238       0.9134
   6738.5034       8.7759     150.1729     430.7241      54.8566       0.4542       2.1095       0.8154       0.9671
   6738.8315       8.7839     150.7340     432.1237      55.1802       0.4216       2.1200       0.8467       0.9000
   6739.1597       8.8189     151.1453     433.0652      54.1453       0.3963       2.1247       0.9043       0.9096
   6739.4873       8.8774     151.4217     433.5949      51.9158       0.3777       2.1240       0.9850       0.9875
   6739.8154       8.8263     150.0962     430.6843      52.7407       0.4080       2.1036       0.9349       0.8481
   6740.1436       8.8218     149.3835     428.7744      52.8651       0.4453       2.0842       0.8888       0.7919
   6740.4717       8.8673     149.3287     427.9363      52.2329       0.4905       2.0658       0.8467       0.8252
   6740.7998       8.7797     148.6729     426.1881      53.4487       0.5158       2.0619       0.8156       0.9303
   6741.1279       8.7544     148.1756     424.7184      54.9172       0.5295       2.0583       0.7677       0.9657
   6741.4561       8.8186     147.9231     423.6698      56.5849       0.5291       2.0544       0.6970       0.9049
   6741.7842       8.8220     147.2133     421.4899      55.7771       0.5466       2.0540       0.7373       0.8520
   6742.1123       8.8306     146.3674     419.1842      55.2613       0.5572       2.0535       0.7765       0.8294
   6742.4404       8.8574     145.3775     416.8604      55.6151       0.5539       2.0522       0.7962       0.8540
   6742.7686       9.2065     146.3360     419.3468      52.1321       0.5453       2.0616       0.7859       0.8527
   6743.0967       9.3293     147.5959     422.9461      50.0977       0.5382       2.0692       0.7874       0.8509
   6743.4243       8.9037     148.8244     427.1971      51.9597       0.5361       2.0699       0.8217       0.8566
   6743.7524       8.7591     151.5249     433.9659      52.7821       0.5205       2.0636       0.8564       0.8784
   6744.0806       8.7137     153.6904     439.5482      53.7178       0.5085       2.0589       0.9100       0.9060
   6744.4087       8.7538     153.6904     440.7565      55.5429       0.5127       2.0622       1.0103       0.9387
   6744.7368       8.7755     153.6486     439.9527      55.0039       0.5059       2.0705       0.9638       0.9162
   6745.0649       8.7896     152.7380     436.7570      53.8819       0.5054       2.0788       0.8820       0.8766
   6745.3931       8.7976     149.1170     427.9547      53.2169       0.5352       2.0821       0.8325       0.8368
   6745.7212       8.7942     146.8915     421.8772      53.1052       0.5454       2.0821       0.8163       0.8246
   6746.0493       8.8022     145.7221     417.9254      53.5264       0.5412       2.0795       0.8135       0.8331
   6746.3774       8.8771     146.6678     418.3712      55.2592       0.5095       2.0716       0.8109       0.8826
   6746.7056       8.8250     146.0137     416.6786      55.9852       0.4704       2.0646       0.8568       0.9000
   6747.0332       8.7568     144.5647     413.8185      56.2631       0.4287       2.0613       0.9127       0.9076
   6747.3613       8.9655     143.1156     410.3361      56.8043       0.3937       2.0770       0.8848       0.9524
   6747.6895       9.2790     142.8226     409.2665      55.0271       0.3685       2.0972       0.9091       0.9821
   6748.0176       9.5623     143.2535     409.8704      52.3631       0.3526       2.1193       0.9560       1.0094
   6748.3457       8.9771     143.8272     412.3065      53.8515       0.3674       2.1331       0.9132       1.1026
   6748.6738       8.7281     145.2817     415.2896      54.3458       0.4113       2.1281       0.8954       1.2032
   6749.0020       8.7428     147.4046     418.9016      54.1249       0.4756       2.1092       0.8969       1.3043
   6749.3301       8.9944     149.7094     426.8680      55.4398       0.5119       2.0935       0.9126       1.3059
   6749.6582       9.0183     150.7821     431.1919      56.4815       0.5377       2.0853       0.8891       1.2435
   6749.9863       8.8366     150.7357     432.2070      57.3099       0.5542       2.0840       0.8301       1.1231
   6750.3145       8.8929     150.7096     432.1314      56.0933       0.5763       2.0840       0.8518       1.0017
   6750.6426       8.9491     150.6861     432.0388      55.2710       0.5747       2.0790       0.8683       0.9258
   6750.9702       9.0052     150.6652     431.9274      54.8784       0.5470       2.0685       0.8789       0.8998
   6751.2983       9.1532     150.1548     430.3369      54.0609       0.4983       2.0493       0.9442       1.0327
   6751.6265       9.2736     149.5255     428.5271      53.5085       0.4509       2.0386       0.9728       1.1128
   6751.9546       9.3512     148.7701     426.5240      53.3267       0.4069       2.0399       0.9488       1.1118
   6752.2827       9.6784     148.8446     426.5602      53.0757       0.4247       2.0495       0.8820       1.0584
   6752.6108       9.7324     148.9431     426.7192      53.9059       0.4513       2.0600       0.8464       1.0068
   6752.9390       9.3022     148.9368     426.7251      56.5811       0.4815       2.0705       0.8689       0.9670
   6753.2671       8.9860     148.7414     426.1125      58.3529       0.4991       2.0591       0.8946       0.9835
   6753.5952       8.7450     148.4468     425.2471      58.1688       0.5101       2.0486       0.9307       1.0377
   6753.9233       8.6165     148.0167     424.0823      54.2648       0.5125       2.0473       0.9869       1.1484
   6754.2515       8.7696     147.6841     422.4717      53.1681       0.4949       2.0512       0.9385       1.1209
   6754.5796       8.8790     146.8416     419.7526      52.2404       0.4713       2.0570       0.8831       1.0412
   6754.9072       8.7133     144.6553     414.5054      49.9935       0.4448       2.0643       0.8726       0.9130
   6755.2354       8.7305     143.6555     411.6492      50.4566       0.4060       2.0645       0.9042       0.9018
