#
#   Created by  : [OpenWorks] Log Export Utility (LEXP)
#   Created on  : 2002-11-13 08:57:04
#   Project     : NILE8
#   User        : TAREM1
#   Interpreter : MTR
#
#------------------------------------------------------------------------------
~VERSION INFORMATION
VERS. 2.0 : CWLS Log ASCII Standard - version 2.0
WRAP.  NO : One line per depth step
~WELL INFORMATION
#MNEMONIC   .UNIT                                           VALUE :DESCRIPTION
#------------------------------------------------------------------------------
STRT        .FT                                         3382.5393 :START DEPTH
STOP        .FT                                         7091.8491 :STOP DEPTH
STEP        .FT                                            0.3281 :STEP
NULL        .                                           -999.2500 :NULL VALUE
COMP        .                                                  BP :COMPANY
WELL        .                                             Ji 49-1 :WELL
FLD         .                                             UNKNOWN :FIELD
LOC         .                                             UNKNOWN :LOCATION
CNTY        .                                             UNKNOWN :COUNTY
STAT        .                                    NORTH ALEXANDRIA :STATE
CTRY        .                                               EGYPT :COUNTRY
SRVC        .                                             UNKNOWN :SERVICE COMPANY
DATE        .                                             UNKNOWN :LOG DATE
UWI         .                                        EGYPT2231100 :UNIQUE WELL ID
XCOORD      .                                       508206.000000 :SURFACE X
YCOORD      .                                      1015098.000000 :SURFACE Y
LAT         .                                           31.844903 :LATITUDE
LON         .                                           29.871761 :LONGITUDE
ELEV        .FT                                           75.4592 :SURFACE ELEV
ELEV_TYPE   .                                                  KB :ELEV TYPE
~CURVE INFORMATION
#MNEMONIC.UNIT        API CODE       : CURVE DESCRIPTION
#------------------------------------------------------------------------------
DEPTH    .FT                         : Measured Depth
CALI     .inches      UNKNOWN        : CALI:PETROWORKS:rC:NONE:v1 
DTCO     .us/ft       UNKNOWN        : DTCO:PETROWORKS:rC:NONE:v1 
DTSM     .us/ft       UNKNOWN        : DTSM:DTSM-Load:r1:MAIN:v2 
GR       .API         UNKNOWN        : GR:PETROWORKS:rC:NONE:v4 
NPHI     .v/v_decimal UNKNOWN        : NPHI:PETROWORKS:rC:NONE:v1 
RHOBED   .g/cm3       UNKNOWN        : RHOBED:PETROWORKS:rC:NONE:v5 
RS       .ohm-m       UNKNOWN        : RS:PETROWORKS:rC:NONE:v2 
RT       .ohm-m       UNKNOWN        : RT:PETROWORKS:rC:NONE:v2 
~A     DEPTH         CALI         DTCO         DTSM           GR         NPHI       RHOBED           RS           RT
# ...
   5125.6460      12.3400    -999.2500    -999.2500      59.0308    -999.2500    -999.2500       0.9585       0.8200
   5125.9741      12.2960    -999.2500    -999.2500      57.5784    -999.2500    -999.2500       0.9855       0.8500
   5126.3018      12.5360     176.0154    -999.2500      55.9361    -999.2500    -999.2500       0.9990       0.8700
   5126.6299      13.0300     176.0154    -999.2500      54.4385    -999.2500    -999.2500       1.0125       0.8800
   5126.9580      13.3000     176.5125    -999.2500      53.3776    -999.2500    -999.2500       1.0260       0.8800
   5127.2861      13.3160     176.5125    -999.2500      52.7732    -999.2500    -999.2500       0.9990       0.8600
   5127.6143      13.3160     177.0167    -999.2500      52.4346    -999.2500    -999.2500       0.9720       0.8200
   5127.9424      13.3160     177.0167    -999.2500      52.2341    -999.2500    -999.2500       0.9180       0.7700
   5128.2705      13.3160     177.0167    -999.2500      52.2344    -999.2500    -999.2500       0.9180       0.7700
   5128.5986      13.3160     177.0167    -999.2500      52.5585    -999.2500    -999.2500       0.9180       0.7800
   5128.9268      13.3160     177.5281    -999.2500      53.2447    -999.2500    -999.2500       0.9315       0.8000
   5129.2549      13.3160     178.0470    -999.2500      54.2561    -999.2500    -999.2500       0.9450       0.8000
   5129.5830      13.3160     178.0470    -999.2500      55.4460    -999.2500    -999.2500       0.9450       0.8000
   5129.9111      13.3160     178.0470    -999.2500      56.5427    -999.2500    -999.2500       0.9450       0.8000
   5130.2388      13.3160     178.0470    -999.2500      57.2660    -999.2500    -999.2500       0.9180       0.7800
   5130.5669      13.3160     178.5736    -999.2500      57.6717    -999.2500    -999.2500       0.9045       0.7600
   5130.8950      13.3160     178.5736    -999.2500      57.9887    -999.2500    -999.2500       0.8640       0.7200
   5131.2231      13.0370     178.5736    -999.2500      58.2729    -999.2500    -999.2500       0.8640       0.7300
   5131.5513      12.4630     178.5736    -999.2500      58.4057    -999.2500    -999.2500       0.8775       0.7200
   5131.8794      12.1470     178.5736    -999.2500      58.3164    -999.2500    -999.2500       0.8775       0.7200
   5132.2075      12.1290     178.8402    -999.2500      58.0439    -999.2500    -999.2500       0.8910       0.7300
   5132.5356      12.1290     179.7303    -999.2500      57.5893    -999.2500    -999.2500       0.8910       0.7300
   5132.8638      12.1290     179.9081    -999.2500      57.0351    -999.2500    -999.2500       0.8910       0.7600
   5133.1919      12.1290     179.9081    -999.2500      56.5074    -999.2500    -999.2500       0.9180       0.7700
   5133.5200      12.1290     179.9081    -999.2500      55.9437    -999.2500    -999.2500       0.9315       0.7800
   5133.8481      12.1290     179.9970    -999.2500      55.1222    -999.2500    -999.2500       0.9180       0.7800
   5134.1758      12.3080     180.1748    -999.2500      53.9991    -999.2500    -999.2500       0.9180       0.7800
   5134.5039      12.4990     180.1748    -999.2500      52.8132    -999.2500    -999.2500       0.9180       0.7700
   5134.8320      12.6890     179.6403    -999.2500      51.8203    -999.2500    -999.2500       0.8775       0.7400
   5135.1602      13.7740     179.6403    -999.2500      51.1843    -999.2500    -999.2500       0.8370       0.7100
   5135.4883      14.4240     179.6403    -999.2500      50.9898    -999.2500    -999.2500       0.9045       0.7500
   5135.8164      14.5510     180.1748    -999.2500      51.2422    -999.2500    -999.2500       0.8910       0.7400
   5136.1445      14.5930     180.7174    -999.2500      51.8635    -999.2500    -999.2500       0.8235       0.6900
   5136.4727      14.6770     180.7174    -999.2500      52.8179    -999.2500    -999.2500       0.8775       0.7300
   5136.8008      14.8690     181.5970    -999.2500      54.1895    -999.2500    -999.2500       0.9045       0.7500
   5137.1289      14.9790     180.8416    -999.2500      55.9745    -999.2500    -999.2500       0.9315       0.7800
   5137.4570      14.9850     180.5403    -999.2500      57.9598    -999.2500    -999.2500       0.7830       0.6800
   5137.7847      14.9850     180.0958    -999.2500      59.8762    -999.2500    -999.2500       0.8100       0.6800
   5138.1128      14.8890     181.3008    -999.2500      61.4869    -999.2500    -999.2500       0.8100       0.6800
   5138.4409      14.6910     181.3008    -999.2500      62.6331    -999.2500    -999.2500       0.7695       0.6500
   5138.7690      14.5830     181.9190    -999.2500      63.3446    -999.2500    -999.2500       0.7830       0.6400
   5139.0972      14.5770     181.9190    -999.2500      63.7394    -999.2500    -999.2500       0.7290       0.6400
   5139.4253      14.5770     181.9190    -999.2500      63.8594    -999.2500    -999.2500       0.7695       0.6400
   5139.7534      14.5770     181.9190    -999.2500      63.6809    -999.2500    -999.2500       0.7560       0.6300
   5140.0815      14.5770     181.9190    -999.2500      63.2786    -999.2500    -999.2500       0.7425       0.6200
   5140.4097      14.5200     181.9190    -999.2500      62.7885    -999.2500    -999.2500       0.7425       0.6200
   5140.7378      13.9260     181.9190    -999.2500      62.2356    -999.2500    -999.2500       0.7155       0.5900
   5141.0659      12.8760     181.9190    -999.2500      61.6434    -999.2500    -999.2500       0.7560       0.6300
   5141.3940      12.3300     181.9190    -999.2500      61.1482    -999.2500    -999.2500       0.7560       0.6300
   5141.7217      12.2940     181.9190    -999.2500      60.9226    -999.2500    -999.2500       0.7830       0.6500
   5142.0498      12.2930     181.3008    -999.2500      61.1832    -999.2500    -999.2500       0.7965       0.6600
   5142.3779      12.2940     181.3008    -999.2500      61.9747    -999.2500    -999.2500       0.8640       0.7300
   5142.7061      12.2990     181.3008    -999.2500      63.0301    -999.2500    -999.2500       0.9315       0.8100
   5143.0342      12.3010     180.6932    -999.2500      64.0010    -999.2500    -999.2500       0.7695       0.6600
   5143.3623      12.2950     180.8710    -999.2500      64.7380    -999.2500    -999.2500       0.9450       0.8300
   5143.6904      12.2910     179.6950    -999.2500      65.3582    -999.2500    -999.2500       0.7830       0.6900
   5144.0186      12.2940     180.0505    -999.2500      65.9508    -999.2500    -999.2500       0.7830       0.6700
   5144.3467      12.2950     180.0505    -999.2500      66.5038    -999.2500    -999.2500       0.8505       0.7300
   5144.6748      12.2940     180.0505    -999.2500      66.9411    -999.2500    -999.2500       0.7965       0.6900
   5145.0029      12.2970     180.0505    -999.2500      67.1813    -999.2500    -999.2500       0.8505       0.7300
   5145.3311      12.2990     180.4950    -999.2500      67.2500    -999.2500    -999.2500       0.8640       0.7500
   5145.6587      12.3000     180.5838    -999.2500      67.1996    -999.2500    -999.2500       0.8775       0.7500
   5145.9868      12.3000     181.9972    -999.2500      67.0443    -999.2500    -999.2500       0.8775       0.7500
   5146.3149      12.3000     181.9972    -999.2500      66.7392    -999.2500    -999.2500       0.8640       0.7300
   5146.6431      12.3000     181.9972    -999.2500      66.2584    -999.2500    -999.2500       0.8505       0.7200
   5146.9712      12.3000     182.5847    -999.2500      65.6956    -999.2500    -999.2500       0.8235       0.7100
   5147.2993      12.3000     182.6736    -999.2500      65.1343    -999.2500    -999.2500       0.8100       0.7000
   5147.6274      12.8320     182.7625    -999.2500      64.5749    -999.2500    -999.2500       0.8100       0.7000
   5147.9556      13.9320     183.3599    -999.2500      63.9823    -999.2500    -999.2500       0.7965       0.6900
