#
#   Created by  : [OpenWorks] Log Export Utility (LEXP)
#   Created on  : 2002-11-13 08:57:04
#   Project     : NILE8
#   User        : TAREM1
#   Interpreter : MTR
#
#------------------------------------------------------------------------------
~VERSION INFORMATION
VERS. 2.0 : CWLS Log ASCII Standard - version 2.0
WRAP.  NO : One line per depth step
~WELL INFORMATION
#MNEMONIC   .UNIT                                           VALUE :DESCRIPTION
#------------------------------------------------------------------------------
STRT        .FT                                         3382.5393 :START DEPTH
STOP        .FT                                         7091.8491 :STOP DEPTH
STEP        .FT                                            0.3281 :STEP
NULL        .                                           -999.2500 :NULL VALUE
COMP        .                                                  BP :COMPANY
WELL        .                                             Ji 49-1 :WELL
FLD         .                                             UNKNOWN :FIELD
LOC         .                                             UNKNOWN :LOCATION
CNTY        .                                             UNKNOWN :COUNTY
STAT        .                                    NORTH ALEXANDRIA :STATE
CTRY        .                                               EGYPT :COUNTRY
SRVC        .                                             UNKNOWN :SERVICE COMPANY
DATE        .                                             UNKNOWN :LOG DATE
UWI         .                                        EGYPT2231100 :UNIQUE WELL ID
XCOORD      .                                       508206.000000 :SURFACE X
YCOORD      .                                      1015098.000000 :SURFACE Y
LAT         .                                           31.844903 :LATITUDE
LON         .                                           29.871761 :LONGITUDE
ELEV        .FT                                           75.4592 :SURFACE ELEV
ELEV_TYPE   .                                                  KB :ELEV TYPE
~CURVE INFORMATION
#MNEMONIC.UNIT        API CODE       : CURVE DESCRIPTION
#------------------------------------------------------------------------------
DEPTH    .FT                         : Measured Depth
CALI     .inches      UNKNOWN        : CALI:PETROWORKS:rC:NONE:v1 
DTCO     .us/ft       UNKNOWN        : DTCO:PETROWORKS:rC:NONE:v1 
DTSM     .us/ft       UNKNOWN        : DTSM:DTSM-Load:r1:MAIN:v2 
GR       .API         UNKNOWN        : GR:PETROWORKS:rC:NONE:v4 
NPHI     .v/v_decimal UNKNOWN        : NPHI:PETROWORKS:rC:NONE:v1 
RHOBED   .g/cm3       UNKNOWN        : RHOBED:PETROWORKS:rC:NONE:v5 
RS       .ohm-m       UNKNOWN        : RS:PETROWORKS:rC:NONE:v2 
RT       .ohm-m       UNKNOWN        : RT:PETROWORKS:rC:NONE:v2 
~A     DEPTH         CALI         DTCO         DTSM           GR         NPHI       RHOBED           RS           RT
# ...
   6370.7217       9.1532     160.4605     461.8528      55.8191       0.5812       2.0072       0.8690       0.6373
   6371.0498       9.1745     163.3742     468.7427      57.2139       0.5970       1.9987       0.9267       0.6978
   6371.3779       9.1504     163.8623     470.2970      57.1371       0.6238       1.9903       0.8317       0.6986
   6371.7061       9.1370     163.0853     468.8011      57.5501       0.6361       1.9819       0.8308       0.6982
   6372.0342       9.1267     161.9042     466.2449      58.2024       0.6422       1.9734       0.8672       0.7163
   6372.3623       9.1026     162.0587     466.3976      58.8277       0.6537       1.9650       0.8473       0.8490
   6372.6904       9.1417     162.3038     466.9341      59.0740       0.6422       1.9657       0.7618       0.9603
   6373.0186       9.2338     162.5694     467.5828      58.9111       0.6143       1.9797       0.6415       1.0456
   6373.3467       9.4611     162.5053     467.0730      57.1132       0.5649       1.9938       0.5703       1.0094
   6373.6748       9.7375     161.9904     465.6168      56.4225       0.5193       2.0079       0.5879       0.9175
   6374.0029      10.0072     161.1449     463.4730      56.5419       0.4802       1.9840       0.6751       0.7941
   6374.3311       9.4296     160.4321     461.7329      56.7983       0.5112       2.0057       0.8254       0.8711
   6374.6587       9.1378     160.1579     460.8846      57.4581       0.5355       2.0239       0.8744       0.8841
   6374.9868       9.1057     160.2822     460.8464      58.4766       0.5537       2.0390       0.8314       0.8389
   6375.3149       9.0736     160.2802     460.9199      55.5353       0.5448       2.0397       0.7990       0.8762
   6375.6431       9.0568     160.3551     461.1426      53.9906       0.5517       2.0341       0.7898       0.9012
   6375.9712       9.0568     160.5145     461.5299      53.9917       0.5758       2.0216       0.8062       0.9127
   6376.2993       9.0721     160.5483     462.4893      53.8414       0.6156       2.0029       0.8100       0.8932
   6376.6274       9.0836     161.3698     464.9525      53.7096       0.6362       1.9895       0.8098       0.8921
   6376.9556       9.0889     163.2524     469.3867      53.6127       0.6298       1.9836       0.8051       0.9178
   6377.2837       9.0701     163.4440     469.6818      51.0955       0.6092       2.0079       0.7702       0.8877
   6377.6118       9.0568     163.0463     468.6633      49.7776       0.5849       2.0337       0.7490       0.8545
   6377.9399       9.0568     161.9805     466.2186      50.8433       0.5571       2.0567       0.7557       0.8260
   6378.2676       9.0293     161.8071     465.5997      51.0595       0.5634       2.0651       0.7739       0.8277
   6378.5957       9.0079     161.7922     465.2547      52.0286       0.5695       2.0677       0.7875       0.8168
   6378.9238       9.0079     161.7941     464.8426      54.7996       0.5636       2.0638       0.7878       0.7701
   6379.2520       9.2156     160.7198     462.3129      54.3242       0.5425       2.0641       0.7978       0.7967
   6379.5801       9.3307     159.7803     460.0139      54.1426       0.5301       2.0646       0.8071       0.8240
   6379.9082       9.0900     159.8251     459.5654      56.6227       0.5484       2.0633       0.8090       0.8093
   6380.2363       9.0323     159.8008     459.3918      58.1997       0.5559       2.0585       0.8058       0.8123
   6380.5645       9.0361     159.7673     459.3199      58.6189       0.5648       2.0534       0.7990       0.8201
   6380.8926       9.0522     159.7751     459.2959      56.2556       0.5893       2.0508       0.7860       0.8255
   6381.2207       9.0683     159.7331     459.1398      55.6993       0.5912       2.0500       0.7835       0.8057
   6381.5488       9.0783     159.6388     458.8669      55.5196       0.5862       2.0499       0.7844       0.7856
   6381.8770       9.0622     159.4061     458.3205      53.8134       0.5904       2.0492       0.7809       0.8077
   6382.2046       9.0355     159.3255     457.9500      53.9705       0.5811       2.0473       0.7777       0.8157
   6382.5327       9.0079     159.2213     457.4999      55.0461       0.5634       2.0445       0.7734       0.8213
   6382.8608       9.0079     158.4985     456.0158      55.9482       0.5368       2.0413       0.7624       0.8554
   6383.1890       9.0178     158.4554     455.8238      57.1353       0.5237       2.0457       0.7590       0.8477
   6383.5171       9.0328     158.8279     456.4504      58.4729       0.5182       2.0548       0.7614       0.8176
   6383.8452       9.0382     159.1215     457.2062      59.5586       0.5037       2.0633       0.7751       0.8240
   6384.1733       9.0436     159.2514     457.6292      59.1909       0.5112       2.0726       0.7978       0.8141
   6384.5015       9.0489     159.2644     457.8115      57.7764       0.5355       2.0821       0.8240       0.7934
   6384.8296       9.0543     159.4437     458.2638      57.6134       0.5607       2.0834       0.7752       0.8065
   6385.1577       9.0568     159.5478     458.5721      57.7382       0.5827       2.0785       0.7556       0.8084
   6385.4858       9.0568     159.5827     458.7482      58.1300       0.6018       2.0680       0.7630       0.7999
   6385.8140       9.0648     159.9511     459.7771      58.3374       0.5854       2.0497       0.7478       0.8510
   6386.1416       9.0652     160.2474     460.6044      58.3956       0.5531       2.0378       0.7409       0.8564
   6386.4697       9.0572     160.4613     461.2014      58.2860       0.5031       2.0332       0.7433       0.8104
   6386.7979       9.2471     159.4896     458.8222      58.1299       0.4935       2.0367       0.7149       0.8591
   6387.1260       9.2592     158.8466     457.0275      58.4922       0.5019       2.0432       0.7105       0.8903
   6387.4541       9.0159     158.7383     456.2485      59.5780       0.5316       2.0530       0.7408       0.8907
   6387.7822       8.9651     158.5908     455.8181      60.5736       0.5457       2.0510       0.7992       0.8514
   6388.1104       8.9497     158.4846     455.5242      60.3800       0.5496       2.0485       0.8435       0.8210
   6388.4385       8.9578     158.4540     455.3927      58.2297       0.5396       2.0472       0.8592       0.8126
   6388.7666       8.9590     158.4791     455.1538      57.7290       0.5037       2.0464       0.8270       0.7865
   6389.0947       8.9590     158.2526     454.4216      56.5103       0.4844       2.0454       0.7968       0.7707
   6389.4229       8.9590     157.4909     452.7170      53.2335       0.5086       2.0434       0.7878       0.7827
   6389.7510       8.9654     157.3382     452.2605      53.6763       0.5161       2.0451       0.7789       0.8084
   6390.0786       8.9734     157.4013     452.2991      54.7837       0.5185       2.0485       0.7721       0.8365
   6390.4067       8.9815     157.6376     452.8288      55.2702       0.5183       2.0537       0.7712       0.8619
   6390.7349       8.9834     157.6994     452.8307      57.8510       0.5238       2.0565       0.7946       0.8396
   6391.0630       8.9797     157.5272     452.3092      60.3886       0.5309       2.0586       0.8246       0.8155
   6391.3911       8.9637     156.7671     450.6189      60.5462       0.5369       2.0612       0.8503       0.8361
   6391.7192       8.9476     156.5662     449.9525      60.3825       0.5493       2.0615       0.8771       0.8754
   6392.0474       8.9345     156.5885     449.7674      60.0443       0.5615       2.0610       0.8991       0.9082
   6392.3755       8.9345     156.5783     449.8441      59.5226       0.5608       2.0610       0.8975       0.8783
   6392.7036       8.9098     156.7110     450.1501      57.0771       0.5620       2.0597       0.8541       0.8511
   6393.0317       8.8792     156.8590     450.4733      54.0325       0.5638       2.0579       0.7941       0.8285
