#
#   Created by  : [OpenWorks] Log Export Utility (LEXP)
#   Created on  : 2002-11-13 08:57:04
#   Project     : NILE8
#   User        : TAREM1
#   Interpreter : MTR
#
#------------------------------------------------------------------------------
~VERSION INFORMATION
VERS. 2.0 : CWLS Log ASCII Standard - version 2.0
WRAP.  NO : One line per depth step
~WELL INFORMATION
#MNEMONIC   .UNIT                                           VALUE :DESCRIPTION
#------------------------------------------------------------------------------
STRT        .FT                                         3382.5393 :START DEPTH
STOP        .FT                                         7091.8491 :STOP DEPTH
STEP        .FT                                            0.3281 :STEP
NULL        .                                           -999.2500 :NULL VALUE
COMP        .                                                  BP :COMPANY
WELL        .                                             Ji 49-1 :WELL
FLD         .                                             UNKNOWN :FIELD
LOC         .                                             UNKNOWN :LOCATION
CNTY        .                                             UNKNOWN :COUNTY
STAT        .                                    NORTH ALEXANDRIA :STATE
CTRY        .                                               EGYPT :COUNTRY
SRVC        .                                             UNKNOWN :SERVICE COMPANY
DATE        .                                             UNKNOWN :LOG DATE
UWI         .                                        EGYPT2231100 :UNIQUE WELL ID
XCOORD      .                                       508206.000000 :SURFACE X
YCOORD      .                                      1015098.000000 :SURFACE Y
LAT         .                                           31.844903 :LATITUDE
LON         .                                           29.871761 :LONGITUDE
ELEV        .FT                                           75.4592 :SURFACE ELEV
ELEV_TYPE   .                                                  KB :ELEV TYPE
~CURVE INFORMATION
#MNEMONIC.UNIT        API CODE       : CURVE DESCRIPTION
#------------------------------------------------------------------------------
DEPTH    .FT                         : Measured Depth
CALI     .inches      UNKNOWN        : CALI:PETROWORKS:rC:NONE:v1 
DTCO     .us/ft       UNKNOWN        : DTCO:PETROWORKS:rC:NONE:v1 
DTSM     .us/ft       UNKNOWN        : DTSM:DTSM-Load:r1:MAIN:v2 
GR       .API         UNKNOWN        : GR:PETROWORKS:rC:NONE:v4 
NPHI     .v/v_decimal UNKNOWN        : NPHI:PETROWORKS:rC:NONE:v1 
RHOBED   .g/cm3       UNKNOWN        : RHOBED:PETROWORKS:rC:NONE:v5 
RS       .ohm-m       UNKNOWN        : RS:PETROWORKS:rC:NONE:v2 
RT       .ohm-m       UNKNOWN        : RT:PETROWORKS:rC:NONE:v2 
~A     DEPTH         CALI         DTCO         DTSM           GR         NPHI       RHOBED           RS           RT
# ...
   6981.9409      10.6581    -999.2500     398.6175      51.4100    -999.2500    -999.2500       0.8348       1.3219
   6982.2690      10.6523    -999.2500     398.6175      51.0000    -999.2500    -999.2500       0.8727       1.3962
   6982.5972      10.6292    -999.2500     398.6175      51.2700    -999.2500    -999.2500       0.9190       1.4200
   6982.9253      10.5770    -999.2500     398.6175      51.6200    -999.2500    -999.2500       0.9565       1.3531
   6983.2534       9.9966    -999.2500     398.6175      51.8900    -999.2500    -999.2500       0.9900       1.1969
   6983.5815       9.4175    -999.2500     398.6175      51.6700    -999.2500    -999.2500       1.0122       1.0313
   6983.9097       9.1244    -999.2500     398.6175      52.1500    -999.2500    -999.2500       1.0092       0.8915
   6984.2378       9.1371    -999.2500     398.6175      53.2200    -999.2500    -999.2500       0.9962       0.9223
   6984.5659       9.2158    -999.2500     398.6175      54.7500    -999.2500    -999.2500       0.9846       0.9952
   6984.8940       9.2158    -999.2500     398.6175      55.4300    -999.2500    -999.2500       0.9868       1.0385
   6985.2217       9.1029    -999.2500     398.6175      55.5300    -999.2500    -999.2500       1.0464       0.9999
   6985.5498       8.9899    -999.2500     398.6175      55.0000    -999.2500    -999.2500       1.0908       0.9392
   6985.8779       9.0542    -999.2500     398.6175      54.2700    -999.2500    -999.2500       0.9815       0.9183
   6986.2061       9.0806    -999.2500     398.6175      53.3700    -999.2500    -999.2500       0.8650       0.9550
   6986.5342       9.1613    -999.2500     398.6175      53.3200    -999.2500    -999.2500       0.7722       1.0190
   6986.8623       9.6551    -999.2500     398.6175      53.5200    -999.2500    -999.2500       0.8364       1.0781
   6987.1904       9.8121    -999.2500     398.6175      53.9800    -999.2500    -999.2500       0.8718       1.1160
   6987.5186       9.7164    -999.2500     398.6175      53.7300    -999.2500    -999.2500       0.8984       1.1399
   6987.8467       9.1584    -999.2500     398.6175      53.8700    -999.2500    -999.2500       1.0038       1.1539
   6988.1748       8.9223    -999.2500     398.6175      54.1900    -999.2500    -999.2500       0.9852       1.1753
   6988.5029       8.9225    -999.2500     398.6175      55.0700    -999.2500    -999.2500       0.8783       1.2039
   6988.8311       8.9265    -999.2500     398.6175      55.5900    -999.2500    -999.2500       0.8291       1.2660
   6989.1587       8.9241    -999.2500     398.6175      55.6900    -999.2500    -999.2500       0.8356       1.3062
   6989.4868       8.9161    -999.2500     398.6175      55.4900    -999.2500    -999.2500       0.8917       1.3269
   6989.8149       9.3720    -999.2500     398.6175      55.5600    -999.2500    -999.2500       0.9467       1.3614
   6990.1431       9.7558    -999.2500     398.6175      55.7700    -999.2500    -999.2500       0.9530       1.3772
   6990.4712      10.0650    -999.2500     398.6175      56.3800    -999.2500    -999.2500       0.9067       1.3732
   6990.7993      10.7584    -999.2500     398.6175      56.7500    -999.2500    -999.2500       0.8777       1.3101
   6991.1274      11.2495    -999.2500     398.6175      56.9000    -999.2500    -999.2500       0.8457       1.1906
   6991.4556      11.4543    -999.2500     398.6175      56.5700    -999.2500    -999.2500       0.8088       1.0005
   6991.7837      11.5346    -999.2500     398.6175      56.3500    -999.2500    -999.2500       0.8572       1.0345
   6992.1118      11.3893    -999.2500     398.6175      56.1300    -999.2500    -999.2500       0.9256       1.0689
   6992.4399      10.9022    -999.2500     398.6175      56.5000    -999.2500    -999.2500       1.0124       1.0677
   6992.7681      10.8114    -999.2500     398.6175      56.7400    -999.2500    -999.2500       0.9344       1.0642
   6993.0957      10.7951    -999.2500     398.6175      56.8000    -999.2500    -999.2500       0.8352       1.0539
   6993.4238      10.7991    -999.2500     398.6175      56.2400    -999.2500    -999.2500       0.7472       1.0309
   6993.7520      10.9892    -999.2500     398.6175      55.9600    -999.2500    -999.2500       0.8017       1.0050
   6994.0801      10.9706    -999.2500     398.6175      55.8000    -999.2500    -999.2500       0.8884       0.9646
   6994.4082      10.3322    -999.2500     398.6175      55.9700    -999.2500    -999.2500       0.9730       0.8901
   6994.7363      10.4032    -999.2500     398.6175      55.8200    -999.2500    -999.2500       0.9741       0.8248
   6995.0645      10.6273    -999.2500     398.6175      55.9200    -999.2500    -999.2500       0.9526       0.7726
   6995.3926      10.6474    -999.2500     398.6175      55.7800    -999.2500    -999.2500       0.9415       0.7527
   6995.7207      10.5320    -999.2500     398.6175      56.1700    -999.2500    -999.2500       0.9300       0.7770
   6996.0488      10.4258    -999.2500     398.6175      56.0600    -999.2500    -999.2500       0.9079       0.8187
   6996.3770      10.5781    -999.2500     398.6175      55.9900    -999.2500    -999.2500       0.8419       0.8604
   6996.7046      10.6501    -999.2500     398.6175      55.5800    -999.2500    -999.2500       0.8218       0.9091
   6997.0327      10.5591    -999.2500     398.6175      55.4800    -999.2500    -999.2500       0.8269       0.9560
   6997.3608       9.7442    -999.2500     398.6175      55.4600    -999.2500    -999.2500       0.8457       0.9716
   6997.6890       9.2712    -999.2500     398.6175      55.2800    -999.2500    -999.2500       0.8716       0.9101
   6998.0171       9.0433    -999.2500     398.6175      54.9200    -999.2500    -999.2500       0.8983       0.8124
   6998.3452       9.1556    -999.2500     398.6175      54.5800    -999.2500    -999.2500       0.8923       0.8205
   6998.6733       9.2036    -999.2500     398.6175      54.6400    -999.2500    -999.2500       0.8858       0.8339
   6999.0015       9.2050    -999.2500     398.6175      55.1300    -999.2500    -999.2500       0.8810       0.8502
   6999.3296       9.2331    -999.2500     398.6175      55.5000    -999.2500    -999.2500       0.9137       0.8463
   6999.6577       9.3365    -999.2500     398.6175      55.5800    -999.2500    -999.2500       0.9127       0.8894
   6999.9858       9.5076    -999.2500     398.6175      54.7800    -999.2500    -999.2500       0.8810       0.9752
   7000.3140       9.0964    -999.2500     398.6175      54.1300    -999.2500    -999.2500       0.9028       1.0438
   7000.6416       9.1046    -999.2500     398.6175      53.8100    -999.2500    -999.2500       0.9003       1.0575
   7000.9697       9.5729    -999.2500     398.6175      54.1000    -999.2500    -999.2500       0.8711       1.0108
   7001.2979       9.8092    -999.2500     398.6175      54.4300    -999.2500    -999.2500       0.8679       1.0207
   7001.6260    -999.2500    -999.2500     398.6175      54.5100    -999.2500    -999.2500       0.8817       1.0537
   7001.9541    -999.2500    -999.2500     398.6175      54.5300    -999.2500    -999.2500       0.9164       1.1139
   7002.2822    -999.2500    -999.2500     398.6175      54.4300    -999.2500    -999.2500       1.0100       1.1553
   7002.6104    -999.2500    -999.2500     398.6175      54.3900    -999.2500    -999.2500       1.0654       1.1764
   7002.9385    -999.2500    -999.2500     398.6175      54.2500    -999.2500    -999.2500       1.0481       1.1677
   7003.2666    -999.2500    -999.2500     398.6175      54.1600    -999.2500    -999.2500       0.9730       1.1561
   7003.5947    -999.2500    -999.2500     398.6175      54.3600    -999.2500    -999.2500       0.9135       1.1390
   7003.9229    -999.2500    -999.2500     398.6175      54.7100    -999.2500    -999.2500       0.9050       1.1117
   7004.2510    -999.2500    -999.2500     398.6175      55.2100    -999.2500    -999.2500       0.8832       1.0970
