#
#   Created by  : [OpenWorks] Log Export Utility (LEXP)
#   Created on  : 2002-11-13 08:57:04
#   Project     : NILE8
#   User        : TAREM1
#   Interpreter : MTR
#
#------------------------------------------------------------------------------
~VERSION INFORMATION
VERS. 2.0 : CWLS Log ASCII Standard - version 2.0
WRAP.  NO : One line per depth step
~WELL INFORMATION
#MNEMONIC   .UNIT                                           VALUE :DESCRIPTION
#------------------------------------------------------------------------------
STRT        .FT                                         3382.5393 :START DEPTH
STOP        .FT                                         7091.8491 :STOP DEPTH
STEP        .FT                                            0.3281 :STEP
NULL        .                                           -999.2500 :NULL VALUE
COMP        .                                                  BP :COMPANY
WELL        .                                             Ji 49-1 :WELL
FLD         .                                             UNKNOWN :FIELD
LOC         .                                             UNKNOWN :LOCATION
CNTY        .                                             UNKNOWN :COUNTY
STAT        .                                    NORTH ALEXANDRIA :STATE
CTRY        .                                               EGYPT :COUNTRY
SRVC        .                                             UNKNOWN :SERVICE COMPANY
DATE        .                                             UNKNOWN :LOG DATE
UWI         .                                        EGYPT2231100 :UNIQUE WELL ID
XCOORD      .                                       508206.000000 :SURFACE X
YCOORD      .                                      1015098.000000 :SURFACE Y
LAT         .                                           31.844903 :LATITUDE
LON         .                                           29.871761 :LONGITUDE
ELEV        .FT                                           75.4592 :SURFACE ELEV
ELEV_TYPE   .                                                  KB :ELEV TYPE
~CURVE INFORMATION
#MNEMONIC.UNIT        API CODE       : CURVE DESCRIPTION
#------------------------------------------------------------------------------
DEPTH    .FT                         : Measured Depth
CALI     .inches      UNKNOWN        : CALI:PETROWORKS:rC:NONE:v1 
DTCO     .us/ft       UNKNOWN        : DTCO:PETROWORKS:rC:NONE:v1 
DTSM     .us/ft       UNKNOWN        : DTSM:DTSM-Load:r1:MAIN:v2 
GR       .API         UNKNOWN        : GR:PETROWORKS:rC:NONE:v4 
NPHI     .v/v_decimal UNKNOWN        : NPHI:PETROWORKS:rC:NONE:v1 
RHOBED   .g/cm3       UNKNOWN        : RHOBED:PETROWORKS:rC:NONE:v5 
RS       .ohm-m       UNKNOWN        : RS:PETROWORKS:rC:NONE:v2 
RT       .ohm-m       UNKNOWN        : RT:PETROWORKS:rC:NONE:v2 
~A     DEPTH         CALI         DTCO         DTSM           GR         NPHI       RHOBED           RS           RT
# ...
   5736.8652      12.2180     170.5841    -999.2500      51.8000       0.5414       1.9840       0.8640       0.6900
   5737.1929      12.2660     171.0286    -999.2500      51.7000       0.5443       1.9885       0.8640       0.6800
   5737.5210      12.3300     171.0286    -999.2500      51.6000       0.5443       1.9930       0.8640       0.6800
   5737.8491      12.3880     170.7619    -999.2500      51.4050       0.5414       1.9980       0.8775       0.6900
   5738.1772      12.4190     170.7619    -999.2500      51.2100       0.5414       2.0030       0.8775       0.7000
   5738.5054      12.4210     170.7619    -999.2500      51.4650       0.5514       2.0080       0.8775       0.7000
   5738.8335      12.4230     170.7619    -999.2500      51.7200       0.5729       2.0130       0.8775       0.7100
   5739.1616      12.4100     170.7619    -999.2500      51.5300       0.5929       2.0160       0.8910       0.7200
   5739.4897      12.3840     171.0286    -999.2500      51.3400       0.6057       2.0190       0.9180       0.7500
   5739.8179      12.3690     171.0286    -999.2500      51.8900       0.6129       2.0175       0.9180       0.7500
   5740.1460      12.3710     171.0286    -999.2500      52.4400       0.6200       2.0160       0.9180       0.7400
   5740.4741      12.3780     171.0286    -999.2500      52.4450       0.6271       2.0075       0.8910       0.7200
   5740.8018      12.3720     171.0286    -999.2500      52.4500       0.6257       1.9990       0.8775       0.7100
   5741.1299      12.3720     171.0286    -999.2500      52.3000       0.6100       1.9905       0.8640       0.7000
   5741.4580      12.3900     170.9397    -999.2500      52.1500       0.5886       1.9820       0.8640       0.6900
   5741.7861      12.4160     170.8508    -999.2500      51.2500       0.5700       1.9815       0.8775       0.6900
   5742.1143      12.4280     170.8508    -999.2500      50.3500       0.5557       1.9810       0.8775       0.7000
   5742.4424      12.4250     170.8508    -999.2500      49.7650       0.5500       1.9840       0.8640       0.7000
   5742.7705      12.4230     170.8508    -999.2500      49.1800       0.5514       1.9870       0.8775       0.7000
   5743.0986      12.4040     170.8508    -999.2500      49.7350       0.5586       1.9900       0.8775       0.7100
   5743.4268      12.3670     170.8508    -999.2500      50.2900       0.5657       1.9930       0.8775       0.7100
   5743.7549      12.3450     170.8508    -999.2500      50.8450       0.5686       1.9960       0.8910       0.7100
   5744.0830      12.3380     170.8508    -999.2500      51.4000       0.5671       1.9990       0.8910       0.7100
   5744.4111      12.3350     170.8508    -999.2500      51.7350       0.5600       1.9965       0.8910       0.7100
   5744.7388      12.3340     170.8508    -999.2500      52.0700       0.5457       1.9940       0.8910       0.7100
   5745.0669      12.3230     170.8508    -999.2500      51.9650       0.5271       1.9900       0.8775       0.7100
   5745.3950      12.2960     171.3130    -999.2500      51.8600       0.5071       1.9860       0.8640       0.6900
   5745.7231      12.2740     171.6950    -999.2500      51.7550       0.4900       1.9815       0.8505       0.6800
   5746.0513      12.2610     171.6950    -999.2500      51.6500       0.4800       1.9770       0.8505       0.6800
   5746.3794      12.2380     172.0859    -999.2500      51.5500       0.4743       1.9815       0.8370       0.6700
   5746.7075      12.2200     172.0859    -999.2500      51.4500       0.4743       1.9860       0.8370       0.6600
   5747.0356      12.2200     172.0859    -999.2500      51.3450       0.4771       1.9910       0.8235       0.6600
   5747.3638      12.2260     172.0859    -999.2500      51.2400       0.4814       1.9960       0.8235       0.6600
   5747.6919      12.2290     171.9970    -999.2500      51.2100       0.4857       2.0015       0.8100       0.6500
   5748.0200      12.2400     171.9970    -999.2500      51.1800       0.4914       2.0070       0.8235       0.6600
   5748.3481      12.2660     171.8192    -999.2500      51.6100       0.5014       2.0060       0.8370       0.6600
   5748.6758      12.2950     171.4637    -999.2500      52.0400       0.5129       2.0050       0.8235       0.6500
   5749.0039      12.3220     171.2859    -999.2500      52.4650       0.5171       1.9975       0.8235       0.6600
   5749.3320      12.3460     171.2859    -999.2500      52.8900       0.5171       1.9900       0.8505       0.6800
   5749.6602      12.3610     171.2859    -999.2500      53.3200       0.5200       1.9830       0.8910       0.7100
   5749.9883      12.3670     171.4637    -999.2500      53.7500       0.5271       1.9760       0.8775       0.7100
   5750.3164      12.3730     171.5229    -999.2500      54.1750       0.5357       1.9720       0.8640       0.7000
   5750.6445      12.3980     170.9542    -999.2500      54.6000       0.5414       1.9680       0.8370       0.6800
   5750.9727      12.4410     170.9542    -999.2500      54.5750       0.5500       1.9755       0.8370       0.6800
   5751.3008      12.4890     170.9542    -999.2500      54.5500       0.5671       1.9830       0.8505       0.6800
   5751.6289      12.5130     170.9542    -999.2500      54.3650       0.5900       1.9905       0.8505       0.6800
   5751.9570      12.5060     170.9542    -999.2500      54.1800       0.6100       1.9980       0.8370       0.6700
   5752.2847      12.4970     170.9542    -999.2500      53.9950       0.6371       1.9970       0.8370       0.6700
   5752.6128      12.5010     170.9542    -999.2500      53.8100       0.6771       1.9960       0.8505       0.6900
   5752.9409      12.5190     171.0431    -999.2500      53.7000       0.7186       1.9935       0.8775       0.7000
   5753.2690      12.5330     171.2505    -999.2500      53.5900       0.7471       1.9910       0.8640       0.7000
   5753.5972      12.5200     170.7797    -999.2500      53.4950       0.7557       1.9885       0.8505       0.7000
   5753.9253      12.4990     171.6685    -999.2500      53.4000       0.7471       1.9860       0.8505       0.6900
   5754.2534      12.4930     172.2019    -999.2500      53.3050       0.7329       1.9820       0.8640       0.7100
   5754.5815      12.4960     172.2019    -999.2500      53.2100       0.7100       1.9780       0.8910       0.7300
   5754.9097      12.4950     172.2908    -999.2500      53.2100       0.6771       1.9740       0.8775       0.7300
   5755.2378      12.4720     172.2908    -999.2500      53.2100       0.6386       1.9700       0.8775       0.7100
   5755.5659      12.4300     172.4685    -999.2500      53.2100       0.6043       1.9695       0.8640       0.7000
   5755.8940      12.3850     172.4685    -999.2500      53.2100       0.5900       1.9690       0.8640       0.7000
   5756.2217      12.3550     172.5574    -999.2500      53.2100       0.5914       1.9765       0.8505       0.6900
   5756.5498      12.3530     172.5574    -999.2500      53.2100       0.5871       1.9840       0.8370       0.6800
   5756.8779      12.3830     172.7352    -999.2500      52.8950       0.5686       1.9915       0.8640       0.6900
   5757.2061      12.4180     172.7352    -999.2500      52.5800       0.5443       1.9990       0.8640       0.7000
   5757.5342      12.4170     173.1797    -999.2500      52.0400       0.5257       2.0065       0.8640       0.7000
   5757.8623      12.3840     174.3352    -999.2500      51.5000       0.5100       2.0140       0.8640       0.7000
   5758.1904      12.3570     176.3797    -999.2500      50.9650       0.4886       2.0175       0.8640       0.6900
   5758.5186      12.3410     177.8018    -999.2500      50.4300       0.4700       2.0210       0.8505       0.6900
   5758.8467      12.3340     178.6019    -999.2500      49.9950       0.4729       2.0180       0.8505       0.6900
   5759.1748      12.3400     178.6019    -999.2500      49.5600       0.5057       2.0150       0.8640       0.6900
