#
#   Created by  : [OpenWorks] Log Export Utility (LEXP)
#   Created on  : 2002-11-13 08:57:04
#   Project     : NILE8
#   User        : TAREM1
#   Interpreter : MTR
#
#------------------------------------------------------------------------------
~VERSION INFORMATION
VERS. 2.0 : CWLS Log ASCII Standard - version 2.0
WRAP.  NO : One line per depth step
~WELL INFORMATION
#MNEMONIC   .UNIT                                           VALUE :DESCRIPTION
#------------------------------------------------------------------------------
STRT        .FT                                         3382.5393 :START DEPTH
STOP        .FT                                         7091.8491 :STOP DEPTH
STEP        .FT                                            0.3281 :STEP
NULL        .                                           -999.2500 :NULL VALUE
COMP        .                                                  BP :COMPANY
WELL        .                                             Ji 49-1 :WELL
FLD         .                                             UNKNOWN :FIELD
LOC         .                                             UNKNOWN :LOCATION
CNTY        .                                             UNKNOWN :COUNTY
STAT        .                                    NORTH ALEXANDRIA :STATE
CTRY        .                                               EGYPT :COUNTRY
SRVC        .                                             UNKNOWN :SERVICE COMPANY
DATE        .                                             UNKNOWN :LOG DATE
UWI         .                                        EGYPT2231100 :UNIQUE WELL ID
XCOORD      .                                       508206.000000 :SURFACE X
YCOORD      .                                      1015098.000000 :SURFACE Y
LAT         .                                           31.844903 :LATITUDE
LON         .                                           29.871761 :LONGITUDE
ELEV        .FT                                           75.4592 :SURFACE ELEV
ELEV_TYPE   .                                                  KB :ELEV TYPE
~CURVE INFORMATION
#MNEMONIC.UNIT        API CODE       : CURVE DESCRIPTION
#------------------------------------------------------------------------------
DEPTH    .FT                         : Measured Depth
CALI     .inches      UNKNOWN        : CALI:PETROWORKS:rC:NONE:v1 
DTCO     .us/ft       UNKNOWN        : DTCO:PETROWORKS:rC:NONE:v1 
DTSM     .us/ft       UNKNOWN        : DTSM:DTSM-Load:r1:MAIN:v2 
GR       .API         UNKNOWN        : GR:PETROWORKS:rC:NONE:v4 
NPHI     .v/v_decimal UNKNOWN        : NPHI:PETROWORKS:rC:NONE:v1 
RHOBED   .g/cm3       UNKNOWN        : RHOBED:PETROWORKS:rC:NONE:v5 
RS       .ohm-m       UNKNOWN        : RS:PETROWORKS:rC:NONE:v2 
RT       .ohm-m       UNKNOWN        : RT:PETROWORKS:rC:NONE:v2 
~A     DEPTH         CALI         DTCO         DTSM           GR         NPHI       RHOBED           RS           RT
# ...
   5985.8804      12.3290     162.9125    -999.2500      53.7500       0.4714       2.0385       0.9585       0.7500
   5986.2085      12.3390     163.4820    -999.2500      53.7500       0.4686       2.0350       0.9720       0.7600
   5986.5361      12.3160     164.8154    -999.2500      53.7500       0.4786       2.0330       0.9720       0.7600
   5986.8643      12.2990     166.4154    -999.2500      53.7500       0.4929       2.0310       0.9855       0.7700
   5987.1924      12.2940     166.7251    -999.2500      53.7500       0.5000       2.0290       0.9855       0.7700
   5987.5205      12.2870     166.7251    -999.2500      53.7500       0.4929       2.0270       0.9855       0.7700
   5987.8486      12.2780     166.7251    -999.2500      53.7900       0.4843       2.0250       0.9720       0.7700
   5988.1768      12.2730     166.7251    -999.2500      53.8300       0.4871       2.0230       0.9855       0.7700
   5988.5049      12.2720     166.7251    -999.2500      53.8950       0.4971       2.0230       0.9855       0.7700
   5988.8330      12.2900     166.7251    -999.2500      53.9600       0.5057       2.0230       0.9990       0.7800
   5989.1611      12.3150     166.7251    -999.2500      54.0200       0.5114       2.0230       1.0125       0.7900
   5989.4893      12.3110     166.8140    -999.2500      54.0800       0.5200       2.0230       0.9990       0.7900
   5989.8174      12.3030     166.8140    -999.2500      54.1450       0.5357       2.0230       0.9855       0.7800
   5990.1455      12.3090     167.3043    -999.2500      54.2100       0.5486       2.0230       0.9855       0.7800
   5990.4731      12.3090     167.3043    -999.2500      54.2650       0.5514       2.0250       0.9720       0.7700
   5990.8013      12.3060     167.7125    -999.2500      54.3200       0.5529       2.0270       0.9585       0.7600
   5991.1294      12.3050     167.7125    -999.2500      54.3600       0.5529       2.0305       0.9585       0.7600
   5991.4575      12.3040     168.2167    -999.2500      54.4000       0.5500       2.0340       0.9450       0.7500
   5991.7856      12.3000     169.2470    -999.2500      54.4450       0.5486       2.0375       0.9180       0.7300
   5992.1138      12.3000     169.7736    -999.2500      54.4900       0.5514       2.0410       0.9045       0.7200
   5992.4419      12.3100     170.3081    -999.2500      54.5350       0.5571       2.0435       0.8910       0.7000
   5992.7700      12.3200     171.4019    -999.2500      54.5800       0.5600       2.0460       0.8370       0.6500
   5993.0981      12.3330     171.8727    -999.2500      54.6200       0.5543       2.0440       0.8370       0.6500
   5993.4263      12.3430     171.6950    -999.2500      54.6600       0.5457       2.0420       0.8235       0.6400
   5993.7544      12.3380     171.9970    -999.2500      54.7050       0.5400       2.0400       0.8100       0.6400
   5994.0825      12.3430     171.9970    -999.2500      54.7500       0.5329       2.0380       0.8235       0.6500
   5994.4102      12.3660     171.4637    -999.2500      54.7400       0.5200       2.0370       0.8640       0.6900
   5994.7383      12.3730     171.3748    -999.2500      54.7300       0.5057       2.0360       0.8505       0.6800
   5995.0664      12.3900     171.3748    -999.2500      54.3750       0.4957       2.0385       0.8100       0.6400
   5995.3945      12.4300     171.3748    -999.2500      54.0200       0.4929       2.0410       0.7695       0.5900
   5995.7227      12.4430     170.8061    -999.2500      53.6700       0.4986       2.0430       0.8640       0.6800
   5996.0508      12.4240     170.2463    -999.2500      53.3200       0.5100       2.0450       0.8370       0.6500
   5996.3789      12.4080     170.2463    -999.2500      52.9700       0.5271       2.0485       0.8235       0.6300
   5996.7070      12.4030     169.2415    -999.2500      52.6200       0.5486       2.0520       0.8910       0.7000
   5997.0352      12.3950     167.6833    -999.2500      52.2650       0.5629       2.0550       0.9720       0.7700
   5997.3633      12.3810     168.1278    -999.2500      51.9100       0.5629       2.0580       0.9720       0.7700
   5997.6914      12.3760     167.7125    -999.2500      51.5600       0.5557       2.0615       0.9720       0.7700
   5998.0195      12.3970     167.7125    -999.2500      51.2100       0.5429       2.0650       0.9585       0.7600
   5998.3472      12.4110     167.7125    -999.2500      51.5250       0.5257       2.0675       0.9585       0.7500
   5998.6753      12.3760     167.7125    -999.2500      51.8400       0.5057       2.0700       0.9585       0.7500
   5999.0034      12.3250     167.7125    -999.2500      52.3350       0.4871       2.0700       0.9720       0.7600
   5999.3315      12.3180     167.7125    -999.2500      52.8300       0.4786       2.0700       0.9450       0.7400
   5999.6597      12.3600     168.2167    -999.2500      53.3250       0.4857       2.0700       0.9315       0.7200
   5999.9878      12.4050     168.2167    -999.2500      53.8200       0.5014       2.0700       0.9585       0.7400
   6000.3159      12.4100     168.2167    -999.2500      54.3100       0.5257       2.0700       0.9315       0.7200
   6000.6440      12.3900     168.2167    -999.2500      54.8000       0.5600       2.0700       0.9180       0.7100
   6000.9722      12.3860     168.2167    -999.2500      55.2950       0.5929       2.0695       0.9180       0.7100
   6001.3003      12.4110     168.2167    -999.2500      55.7900       0.6071       2.0690       0.9180       0.7200
   6001.6284      12.4440     168.2167    -999.2500      55.2700       0.6043       2.0680       0.9180       0.7300
   6001.9561      12.4510     168.2167    -999.2500      54.7500       0.5929       2.0670       0.9450       0.7400
   6002.2842      12.4480     168.2167    -999.2500      54.1000       0.5757       2.0655       0.9585       0.7400
   6002.6123      12.4470     168.2167    -999.2500      53.4500       0.5500       2.0640       0.9450       0.7400
   6002.9404      12.4310     168.2167    -999.2500      52.8000       0.5157       2.0630       0.9450       0.7400
   6003.2686      12.4120     168.2167    -999.2500      52.1500       0.4957       2.0620       0.9450       0.7400
   6003.5967      12.4060     168.2167    -999.2500      51.9150       0.4929       2.0605       0.9450       0.7300
   6003.9248      12.4010     168.2167    -999.2500      51.6800       0.5057       2.0590       0.9450       0.7400
   6004.2529      12.3980     168.2167    -999.2500      51.4550       0.5229       2.0595       0.9450       0.7300
   6004.5811      12.3970     168.2167    -999.2500      51.2300       0.5386       2.0600       0.9315       0.7300
   6004.9092      12.3960     168.2167    -999.2500      51.1900       0.5500       2.0615       0.9315       0.7200
   6005.2373      12.4040     168.2167    -999.2500      51.1500       0.5557       2.0630       0.9315       0.7200
   6005.5654      12.4180     168.2167    -999.2500      51.2150       0.5486       2.0645       0.9315       0.7200
   6005.8931      12.4210     168.2167    -999.2500      51.2800       0.5429       2.0660       0.9045       0.7200
   6006.2212      12.4030     168.2167    -999.2500      51.3500       0.5400       2.0675       0.9180       0.7300
   6006.5493      12.3770     168.2167    -999.2500      51.4200       0.5429       2.0690       0.9180       0.7300
   6006.8774      12.3650     167.4167    -999.2500      51.4850       0.5514       2.0705       0.9450       0.7400
   6007.2056      12.3430     165.8167    -999.2500      51.5500       0.5643       2.0720       0.9450       0.7500
   6007.5337      12.2870     162.8236    -999.2500      51.5100       0.5814       2.0735       0.9585       0.7600
   6007.8618      12.2490     161.0458    -999.2500      51.4700       0.5957       2.0750       0.9720       0.7800
   6008.1899      12.2590     159.9791    -999.2500      51.3700       0.6043       2.0765       0.9585       0.7600
