#
#   Created by  : [OpenWorks] Log Export Utility (LEXP)
#   Created on  : 2002-11-13 08:57:04
#   Project     : NILE8
#   User        : TAREM1
#   Interpreter : MTR
#
#------------------------------------------------------------------------------
~VERSION INFORMATION
VERS. 2.0 : CWLS Log ASCII Standard - version 2.0
WRAP.  NO : One line per depth step
~WELL INFORMATION
#MNEMONIC   .UNIT                                           VALUE :DESCRIPTION
#------------------------------------------------------------------------------
STRT        .FT                                         3382.5393 :START DEPTH
STOP        .FT                                         7091.8491 :STOP DEPTH
STEP        .FT                                            0.3281 :STEP
NULL        .                                           -999.2500 :NULL VALUE
COMP        .                                                  BP :COMPANY
WELL        .                                             Ji 49-1 :WELL
FLD         .                                             UNKNOWN :FIELD
LOC         .                                             UNKNOWN :LOCATION
CNTY        .                                             UNKNOWN :COUNTY
STAT        .                                    NORTH ALEXANDRIA :STATE
CTRY        .                                               EGYPT :COUNTRY
SRVC        .                                             UNKNOWN :SERVICE COMPANY
DATE        .                                             UNKNOWN :LOG DATE
UWI         .                                        EGYPT2231100 :UNIQUE WELL ID
XCOORD      .                                       508206.000000 :SURFACE X
YCOORD      .                                      1015098.000000 :SURFACE Y
LAT         .                                           31.844903 :LATITUDE
LON         .                                           29.871761 :LONGITUDE
ELEV        .FT                                           75.4592 :SURFACE ELEV
ELEV_TYPE   .                                                  KB :ELEV TYPE
~CURVE INFORMATION
#MNEMONIC.UNIT        API CODE       : CURVE DESCRIPTION
#------------------------------------------------------------------------------
DEPTH    .FT                         : Measured Depth
CALI     .inches      UNKNOWN        : CALI:PETROWORKS:rC:NONE:v1 
DTCO     .us/ft       UNKNOWN        : DTCO:PETROWORKS:rC:NONE:v1 
DTSM     .us/ft       UNKNOWN        : DTSM:DTSM-Load:r1:MAIN:v2 
GR       .API         UNKNOWN        : GR:PETROWORKS:rC:NONE:v4 
NPHI     .v/v_decimal UNKNOWN        : NPHI:PETROWORKS:rC:NONE:v1 
RHOBED   .g/cm3       UNKNOWN        : RHOBED:PETROWORKS:rC:NONE:v5 
RS       .ohm-m       UNKNOWN        : RS:PETROWORKS:rC:NONE:v2 
RT       .ohm-m       UNKNOWN        : RT:PETROWORKS:rC:NONE:v2 
~A     DEPTH         CALI         DTCO         DTSM           GR         NPHI       RHOBED           RS           RT
# ...
   6121.7065      12.8950     176.9130    -999.2500      54.0800       0.4400       2.0485       0.8640       0.6900
   6122.0347      12.8520     177.0908    -999.2500      54.1800       0.4257       2.0370       0.8640       0.6900
   6122.3628      12.7870     177.2685    -999.2500      54.2850       0.4157       2.0465       0.8640       0.6900
   6122.6909      12.7900     177.5648    -999.2500      54.3900       0.4171       2.0560       0.8640       0.6800
   6123.0190      12.7950     178.1838    -999.2500      54.4950       0.4243       2.0515       0.8370       0.6500
   6123.3472      12.7500     178.1838    -999.2500      54.6000       0.4343       2.0470       0.8100       0.6300
   6123.6753      12.6540     178.1838    -999.2500      54.7000       0.4486       2.0475       0.8100       0.6300
   6124.0034      12.6100     178.1838    -999.2500      54.8000       0.4686       2.0480       0.8100       0.6300
   6124.3315      12.6170     178.1838    -999.2500      54.8150       0.4929       2.0450       0.8100       0.6400
   6124.6597      12.6550     178.1838    -999.2500      54.8300       0.5157       2.0420       0.8235       0.6500
   6124.9873      12.7440     178.1838    -999.2500      54.8300       0.5314       2.0250       0.8370       0.6500
   6125.3154      12.7440     178.1838    -999.2500      54.8300       0.5386       2.0080       0.8505       0.6600
   6125.6436      12.7160     177.1797    -999.2500      54.8300       0.5371       2.0075       0.8640       0.6800
   6125.9717      12.7560     175.5619    -999.2500      54.8300       0.5271       2.0070       0.8775       0.6900
   6126.2998      12.7100     173.8730    -999.2500      54.8300       0.5114       2.0050       0.8775       0.7000
   6126.6279      12.6360     173.7841    -999.2500      54.8300       0.4957       2.0030       0.8910       0.7000
   6126.9561      12.6110     173.6952    -999.2500      54.6450       0.4814       1.9925       0.9045       0.7100
   6127.2842      12.6450     171.9081    -999.2500      54.4600       0.4671       1.9820       0.8910       0.7100
   6127.6123      12.7210     171.9081    -999.2500      53.9200       0.4586       2.0045       0.8910       0.7000
   6127.9404      12.7150     171.7303    -999.2500      53.3800       0.4600       2.0270       0.8910       0.7000
   6128.2686      12.6540     170.6637    -999.2500      52.9300       0.4743       2.0255       0.8775       0.6800
   6128.5967      12.6290     170.6637    -999.2500      52.4800       0.4900       2.0240       0.8775       0.6900
   6128.9243      12.6620     169.6847    -999.2500      52.2000       0.4986       2.0375       0.9180       0.7200
   6129.2524      12.8210     169.1581    -999.2500      51.9200       0.5043       2.0510       0.8910       0.7000
   6129.5806      12.9970     168.8026    -999.2500      51.6350       0.5114       2.0220       0.9180       0.7300
   6129.9087      12.9580     168.0915    -999.2500      51.3500       0.5214       1.9930       0.9450       0.7500
   6130.2368      12.9460     168.0915    -999.2500      51.3400       0.5257       1.9820       0.9450       0.7500
   6130.5649      13.1340     168.0915    -999.2500      51.3300       0.5171       1.9710       0.9450       0.7500
   6130.8931      13.1350     168.0915    -999.2500      51.6050       0.5114       1.9855       0.9450       0.7400
   6131.2212      12.9270     168.0915    -999.2500      51.8800       0.5143       2.0000       0.9450       0.7300
   6131.5493      12.8260     167.5726    -999.2500      51.9250       0.5171       2.0070       0.9180       0.7200
   6131.8774      12.8080     167.5726    -999.2500      51.9700       0.5214       2.0140       0.8910       0.7000
   6132.2056      12.8120     167.5429    -999.2500      51.8100       0.5243       2.0185       0.8910       0.7000
   6132.5332      12.9990     168.0618    -999.2500      51.6500       0.5271       2.0230       0.9045       0.7000
   6132.8613      13.2600     168.0618    -999.2500      52.1250       0.5300       2.0185       0.9045       0.7000
   6133.1895      13.2960     168.0618    -999.2500      52.6000       0.5300       2.0140       0.9450       0.7500
   6133.5176      13.1570     168.0618    -999.2500      53.1650       0.5214       2.0010       0.9315       0.7400
   6133.8457      12.9850     168.0915    -999.2500      53.7300       0.5071       1.9880       0.9450       0.7500
   6134.1738      12.8790     168.0618    -999.2500      53.4650       0.4900       1.9745       0.9180       0.7300
   6134.5020      12.8650     168.0026    -999.2500      53.2000       0.4757       1.9610       0.9180       0.7300
   6134.8301      12.8690     168.0026    -999.2500      52.9400       0.4700       1.9810       0.9180       0.7200
   6135.1582      12.8830     168.0026    -999.2500      52.6800       0.4714       2.0010       0.9180       0.7200
   6135.4863      12.9220     168.0026    -999.2500      52.5250       0.4729       2.0180       0.9180       0.7200
   6135.8145      12.9580     168.0026    -999.2500      52.3700       0.4743       2.0350       0.9180       0.7200
   6136.1426      12.9630     168.0026    -999.2500      52.3600       0.4786       2.0270       0.9180       0.7200
   6136.4702      13.0250     168.0026    -999.2500      52.3500       0.4829       2.0190       0.9180       0.7200
   6136.7983      13.1090     168.0026    -999.2500      52.7100       0.4814       1.9945       0.9180       0.7200
   6137.1265      13.0340     168.1804    -999.2500      53.0700       0.4729       1.9700       0.9180       0.7200
   6137.4546      12.8580     168.3581    -999.2500      53.0950       0.4600       2.0010       0.9180       0.7100
   6137.7827      12.7460     168.7137    -999.2500      53.1200       0.4457       2.0320       0.9315       0.7300
   6138.1108      12.8150     168.9804    -999.2500      53.6000       0.4343       2.0205       0.9315       0.7400
   6138.4390      12.9880     168.9804    -999.2500      54.0800       0.4286       2.0090       0.9315       0.7300
   6138.7671      13.1550     168.9804    -999.2500      53.9850       0.4314       1.9990       0.9045       0.7100
   6139.0952      13.3270     168.9804    -999.2500      53.8900       0.4400       1.9890       0.8910       0.6900
   6139.4233      13.2540     168.9804    -999.2500      54.4050       0.4600       1.9915       0.8910       0.6900
   6139.7515      12.8950     169.0692    -999.2500      54.9200       0.4914       1.9940       0.8910       0.6900
   6140.0796      12.6770     169.6847    -999.2500      55.3650       0.5214       1.9970       0.9585       0.7700
   6140.4072      12.6870     169.6847    -999.2500      55.8100       0.5386       2.0000       0.9585       0.7700
   6140.7354      12.7520     169.6847    -999.2500      54.6700       0.5443       2.0040       0.9585       0.7700
   6141.0635      12.8310     169.5958    -999.2500      53.5300       0.5400       2.0080       0.9315       0.7500
   6141.3916      12.9610     169.5070    -999.2500      53.1850       0.5314       2.0280       0.9045       0.7300
   6141.7197      13.1450     169.5070    -999.2500      52.8400       0.5086       2.0480       0.9045       0.7200
   6142.0479      13.1780     169.5070    -999.2500      53.7350       0.4757       2.0675       0.9045       0.7200
   6142.3760      12.9370     169.5070    -999.2500      54.6300       0.4471       2.0870       0.9045       0.7100
   6142.7041      12.6370     170.0415    -999.2500      53.9300       0.4357       2.0770       0.8910       0.7100
   6143.0322      12.5900     170.5841    -999.2500      53.2300       0.4314       2.0670       0.8775       0.7000
   6143.3604      12.7490     170.5841    -999.2500      53.3750       0.4314       2.0565       0.8640       0.7000
   6143.6885      12.8970     171.1352    -999.2500      53.5200       0.4343       2.0460       0.8640       0.7000
   6144.0161      12.9830     171.1352    -999.2500      53.5750       0.4414       2.0355       0.8775       0.7100
