#
#   Created by  : [OpenWorks] Log Export Utility (LEXP)
#   Created on  : 2002-11-13 08:57:04
#   Project     : NILE8
#   User        : TAREM1
#   Interpreter : MTR
#
#------------------------------------------------------------------------------
~VERSION INFORMATION
VERS. 2.0 : CWLS Log ASCII Standard - version 2.0
WRAP.  NO : One line per depth step
~WELL INFORMATION
#MNEMONIC   .UNIT                                           VALUE :DESCRIPTION
#------------------------------------------------------------------------------
STRT        .FT                                         3382.5393 :START DEPTH
STOP        .FT                                         7091.8491 :STOP DEPTH
STEP        .FT                                            0.3281 :STEP
NULL        .                                           -999.2500 :NULL VALUE
COMP        .                                                  BP :COMPANY
WELL        .                                             Ji 49-1 :WELL
FLD         .                                             UNKNOWN :FIELD
LOC         .                                             UNKNOWN :LOCATION
CNTY        .                                             UNKNOWN :COUNTY
STAT        .                                    NORTH ALEXANDRIA :STATE
CTRY        .                                               EGYPT :COUNTRY
SRVC        .                                             UNKNOWN :SERVICE COMPANY
DATE        .                                             UNKNOWN :LOG DATE
UWI         .                                        EGYPT2231100 :UNIQUE WELL ID
XCOORD      .                                       508206.000000 :SURFACE X
YCOORD      .                                      1015098.000000 :SURFACE Y
LAT         .                                           31.844903 :LATITUDE
LON         .                                           29.871761 :LONGITUDE
ELEV        .FT                                           75.4592 :SURFACE ELEV
ELEV_TYPE   .                                                  KB :ELEV TYPE
~CURVE INFORMATION
#MNEMONIC.UNIT        API CODE       : CURVE DESCRIPTION
#------------------------------------------------------------------------------
DEPTH    .FT                         : Measured Depth
CALI     .inches      UNKNOWN        : CALI:PETROWORKS:rC:NONE:v1 
DTCO     .us/ft       UNKNOWN        : DTCO:PETROWORKS:rC:NONE:v1 
DTSM     .us/ft       UNKNOWN        : DTSM:DTSM-Load:r1:MAIN:v2 
GR       .API         UNKNOWN        : GR:PETROWORKS:rC:NONE:v4 
NPHI     .v/v_decimal UNKNOWN        : NPHI:PETROWORKS:rC:NONE:v1 
RHOBED   .g/cm3       UNKNOWN        : RHOBED:PETROWORKS:rC:NONE:v5 
RS       .ohm-m       UNKNOWN        : RS:PETROWORKS:rC:NONE:v2 
RT       .ohm-m       UNKNOWN        : RT:PETROWORKS:rC:NONE:v2 
~A     DEPTH         CALI         DTCO         DTSM           GR         NPHI       RHOBED           RS           RT
# ...
   5238.8345      12.4180     169.8837    -999.2500      53.2100       0.5214       1.9310       0.9180       0.7100
   5239.1626      12.4130     170.0615    -999.2500      53.2100       0.5271       1.9270       0.9180       0.7200
   5239.4907      12.4020     170.0615    -999.2500      53.2100       0.5343       1.9230       0.9180       0.7200
   5239.8188      12.4010     170.3281    -999.2500      53.2100       0.5429       1.9265       0.9315       0.7200
   5240.1470      12.4070     170.6837    -999.2500      53.2100       0.5500       1.9300       0.9315       0.7300
   5240.4751      12.4090     170.8615    -999.2500      53.5700       0.5529       1.9415       0.9315       0.7300
   5240.8032      12.4100     171.2170    -999.2500      53.9300       0.5443       1.9530       0.9315       0.7200
   5241.1313      12.4040     171.9281    -999.2500      54.2750       0.5314       1.9565       0.9315       0.7200
   5241.4590      12.3960     172.3726    -999.2500      54.6200       0.5200       1.9600       0.9315       0.7200
   5241.7871      12.3900     171.9500    -999.2500      53.8700       0.5114       1.9670       0.9450       0.7300
   5242.1152      12.3810     172.2167    -999.2500      53.1200       0.5057       1.9740       0.9450       0.7300
   5242.4434      12.3770     170.7547    -999.2500      52.7450       0.5043       1.9810       0.9855       0.7500
   5242.7715      12.3820     170.7547    -999.2500      52.3700       0.5057       1.9880       0.9855       0.7600
   5243.0996      12.3950     170.2711    -999.2500      52.7200       0.5129       1.9815       0.9990       0.7600
   5243.4277      12.4190     171.0118    -999.2500      53.0700       0.5214       1.9750       0.9990       0.7700
   5243.7559      12.4450     171.1304    -999.2500      52.2200       0.5286       1.9685       0.9990       0.7800
   5244.0840      12.4770     171.1304    -999.2500      51.3700       0.5314       1.9620       1.0125       0.8000
   5244.4121      12.5150     171.1304    -999.2500      51.1050       0.5257       1.9555       1.0665       0.8600
   5244.7402      12.5240     171.1304    -999.2500      50.8400       0.5114       1.9490       1.1070       0.8900
   5245.0684      12.4860     171.1304    -999.2500      51.0950       0.5000       1.9435       1.1205       0.8900
   5245.3960      12.4350     171.0118    -999.2500      51.3500       0.4957       1.9380       1.0260       0.8100
   5245.7241      12.4020     171.2450    -999.2500      51.5950       0.4914       1.9350       0.9720       0.7500
   5246.0522      12.3810     172.2463    -999.2500      51.8400       0.4900       1.9320       0.9450       0.7200
   5246.3804      12.3640     172.1278    -999.2500      52.0950       0.4971       1.9355       0.9180       0.7100
   5246.7085      12.3420     170.4389    -999.2500      52.3500       0.5171       1.9390       0.9180       0.7000
   5247.0366      12.3150     169.7278    -999.2500      52.6950       0.5471       1.9405       0.9045       0.6900
   5247.3647      12.3050     169.7278    -999.2500      53.0400       0.5671       1.9420       0.9045       0.6900
   5247.6929      12.3110     169.7278    -999.2500      53.5800       0.5729       1.9420       0.9180       0.7100
   5248.0210      12.3200     169.7278    -999.2500      54.1200       0.5786       1.9420       0.9315       0.7200
   5248.3491      12.3300     169.7278    -999.2500      54.4200       0.5886       1.9485       0.9450       0.7400
   5248.6772      12.3400     169.7278    -999.2500      54.7200       0.5943       1.9550       0.9585       0.7400
   5249.0054      12.3580     169.7278    -999.2500      54.5600       0.5871       1.9655       0.9585       0.7500
   5249.3330      12.3840     169.7278    -999.2500      54.4000       0.5671       1.9760       0.9720       0.7600
   5249.6611      12.4090     169.7278    -999.2500      54.0850       0.5514       1.9730       0.9585       0.7500
   5249.9893      12.4140     170.3500    -999.2500      53.7700       0.5414       1.9700       0.9585       0.7500
   5250.3174      12.4010     170.5278    -999.2500      53.3700       0.5271       1.9675       0.9585       0.7400
   5250.6455      12.3900     170.5278    -999.2500      52.9700       0.5086       1.9650       0.9450       0.7300
   5250.9736      12.3860     170.5278    -999.2500      52.6450       0.4929       1.9650       0.9315       0.7200
   5251.3018      12.3910     170.5278    -999.2500      52.3200       0.4857       1.9650       0.9315       0.7200
   5251.6299      12.3970     171.1500    -999.2500      52.0450       0.4886       1.9650       0.9450       0.7200
   5251.9580      12.3980     171.4167    -999.2500      51.7700       0.4957       1.9650       0.9450       0.7300
   5252.2861      12.3940     171.6833    -999.2500      51.5800       0.5014       1.9630       0.9450       0.7400
   5252.6143      12.3850     171.7722    -999.2500      51.3900       0.5086       1.9610       0.9450       0.7600
   5252.9424      12.3800     171.7722    -999.2500      51.2350       0.5157       1.9590       0.9450       0.7600
   5253.2700      12.3860     172.2837    -999.2500      51.0800       0.5229       1.9570       0.9450       0.7600
   5253.5981      12.3770     172.1948    -999.2500      50.9250       0.5343       1.9565       0.9450       0.7600
   5253.9263      12.3470     173.2415    -999.2500      50.7700       0.5471       1.9560       0.8910       0.7000
   5254.2544      12.3280     174.3352    -999.2500      50.7550       0.5543       1.9615       0.8640       0.6800
   5254.5825      12.3200     174.8950    -999.2500      50.7400       0.5586       1.9670       0.8505       0.6600
   5254.9106      12.3100     174.8950    -999.2500      51.3200       0.5600       1.9715       0.8235       0.6500
   5255.2388      12.3060     175.9970    -999.2500      51.9000       0.5586       1.9760       0.8100       0.6400
   5255.5669      12.3130     175.9970    -999.2500      52.0850       0.5557       1.9700       0.8370       0.6800
   5255.8950      12.3270     176.5750    -999.2500      52.2700       0.5500       1.9640       0.8505       0.7000
   5256.2231      12.3360     176.5750    -999.2500      52.3500       0.5386       1.9585       0.8370       0.6800
   5256.5513      12.3360     176.1305    -999.2500      52.4300       0.5271       1.9530       0.8235       0.6600
   5256.8789      12.3390     176.0416    -999.2500      52.5150       0.5157       1.9530       0.8235       0.6600
   5257.2070      12.3540     176.0416    -999.2500      52.6000       0.5057       1.9530       0.8235       0.6500
   5257.5352      12.3650     176.0416    -999.2500      53.2700       0.5000       1.9530       0.8235       0.6500
   5257.8633      12.3610     176.1305    -999.2500      53.9400       0.4971       1.9530       0.8100       0.6500
   5258.1914      12.3590     176.7180    -999.2500      55.1200       0.4943       1.9565       0.8100       0.6400
   5258.5195      12.3720     176.7180    -999.2500      56.3000       0.4914       1.9600       0.7965       0.6400
   5258.8477      12.3850     176.8958    -999.2500      54.9600       0.4886       1.9605       0.8100       0.6400
   5259.1758      12.3930     176.8958    -999.2500      53.6200       0.4943       1.9610       0.8100       0.6400
   5259.5039      12.3940     176.8958    -999.2500      52.1200       0.5100       1.9540       0.8100       0.6500
   5259.8320      12.3970     176.8958    -999.2500      50.6200       0.5271       1.9470       0.8235       0.6500
   5260.1602      12.3950     176.7180    -999.2500      50.4150       0.5371       1.9475       0.8100       0.6300
   5260.4883      12.3840     176.1305    -999.2500      50.2100       0.5400       1.9480       0.8100       0.6400
   5260.8159      12.3810     176.3083    -999.2500      50.3450       0.5400       1.9425       0.8235       0.6500
   5261.1440      12.3860     176.3083    -999.2500      50.4800       0.5414       1.9370       0.8370       0.6500
