#
#   Created by  : [OpenWorks] Log Export Utility (LEXP)
#   Created on  : 2002-11-13 08:57:04
#   Project     : NILE8
#   User        : TAREM1
#   Interpreter : MTR
#
#------------------------------------------------------------------------------
~VERSION INFORMATION
VERS. 2.0 : CWLS Log ASCII Standard - version 2.0
WRAP.  NO : One line per depth step
~WELL INFORMATION
#MNEMONIC   .UNIT                                           VALUE :DESCRIPTION
#------------------------------------------------------------------------------
STRT        .FT                                         3382.5393 :START DEPTH
STOP        .FT                                         7091.8491 :STOP DEPTH
STEP        .FT                                            0.3281 :STEP
NULL        .                                           -999.2500 :NULL VALUE
COMP        .                                                  BP :COMPANY
WELL        .                                             Ji 49-1 :WELL
FLD         .                                             UNKNOWN :FIELD
LOC         .                                             UNKNOWN :LOCATION
CNTY        .                                             UNKNOWN :COUNTY
STAT        .                                    NORTH ALEXANDRIA :STATE
CTRY        .                                               EGYPT :COUNTRY
SRVC        .                                             UNKNOWN :SERVICE COMPANY
DATE        .                                             UNKNOWN :LOG DATE
UWI         .                                        EGYPT2231100 :UNIQUE WELL ID
XCOORD      .                                       508206.000000 :SURFACE X
YCOORD      .                                      1015098.000000 :SURFACE Y
LAT         .                                           31.844903 :LATITUDE
LON         .                                           29.871761 :LONGITUDE
ELEV        .FT                                           75.4592 :SURFACE ELEV
ELEV_TYPE   .                                                  KB :ELEV TYPE
~CURVE INFORMATION
#MNEMONIC.UNIT        API CODE       : CURVE DESCRIPTION
#------------------------------------------------------------------------------
DEPTH    .FT                         : Measured Depth
CALI     .inches      UNKNOWN        : CALI:PETROWORKS:rC:NONE:v1 
DTCO     .us/ft       UNKNOWN        : DTCO:PETROWORKS:rC:NONE:v1 
DTSM     .us/ft       UNKNOWN        : DTSM:DTSM-Load:r1:MAIN:v2 
GR       .API         UNKNOWN        : GR:PETROWORKS:rC:NONE:v4 
NPHI     .v/v_decimal UNKNOWN        : NPHI:PETROWORKS:rC:NONE:v1 
RHOBED   .g/cm3       UNKNOWN        : RHOBED:PETROWORKS:rC:NONE:v5 
RS       .ohm-m       UNKNOWN        : RS:PETROWORKS:rC:NONE:v2 
RT       .ohm-m       UNKNOWN        : RT:PETROWORKS:rC:NONE:v2 
~A     DEPTH         CALI         DTCO         DTSM           GR         NPHI       RHOBED           RS           RT
# ...
   6868.7524       8.5958     174.4790     388.2763      41.9866       0.4003       2.0529       0.6537       0.6268
   6869.0806       8.5897     174.5559     389.7346      44.6545       0.3965       2.0543       0.6647       0.6378
   6869.4087       8.5817     174.5019     390.1677      48.6021       0.3791       2.0621       0.7046       0.8531
   6869.7368       8.5859     172.3138     390.5417      54.1015       0.3730       2.0665       0.7475       0.8651
   6870.0645       8.5881     171.0742     391.2787      58.7921       0.3700       2.0687       0.7890       0.8305
   6870.3926       8.5721     174.9259     393.2228      59.4187       0.3655       2.0674       0.8233       0.8470
   6870.7207       8.5790     176.4300     393.8109      57.7533       0.3774       2.0637       0.8235       0.8512
   6871.0488       8.5905     176.9194     393.9385      55.4506       0.3937       2.0604       0.8089       0.8508
   6871.3770       8.5824     177.0580     394.3924      54.2784       0.4008       2.0623       0.7886       0.8512
   6871.7051       8.5780     177.4988     395.5305      52.2792       0.4092       2.0656       0.7782       0.8507
   6872.0332       8.5773     177.1806     398.0311      50.4531       0.4141       2.0692       0.7719       0.8497
   6872.3613       8.5879     171.4575     406.6100      52.1008       0.3936       2.0705       0.7618       0.8476
   6872.6895       8.5820     165.5068     411.2614      53.3805       0.3760       2.0690       0.7552       0.8293
   6873.0176       8.5675     159.4451     413.2901      54.6274       0.3614       2.0655       0.7534       0.8040
   6873.3457       8.5675     153.6511     413.2901      57.6693       0.3595       2.0602       0.7780       0.8045
   6873.6738       8.5736     151.2653     413.2901      59.3531       0.3634       2.0539       0.7939       0.8047
   6874.0015       8.5841     151.4148     413.2901      59.9132       0.3720       2.0470       0.8027       0.8035
   6874.3296       8.5894     151.2656     413.2901      58.3531       0.3841       2.0470       0.8009       0.7810
   6874.6577       8.5920     150.3742     413.2901      56.2986       0.3906       2.0491       0.7988       0.7509
   6874.9858       8.5920     148.8085     413.2901      53.7943       0.3920       2.0530       0.7964       0.7138
   6875.3140       8.5920     148.8085     413.2901      54.7992       0.3939       2.0648       0.8025       0.9141
   6875.6421       8.6073     148.2355     412.8827      56.0750       0.4052       2.0788       0.8059       0.9926
   6875.9702       8.6394     147.0318     412.0267      57.6449       0.4270       2.0952       0.8064       0.9369
   6876.2983       8.6716     146.9038     411.8322      59.9179       0.4340       2.1054       0.8078       0.9306
   6876.6265       8.6899     146.8702     411.6522      61.1767       0.4471       2.1169       0.8062       0.9089
   6876.9546       8.6899     146.8902     411.4472      61.0406       0.4696       2.1307       0.8005       0.8631
   6877.2827       8.7093     146.7671     411.0468      61.3497       0.4390       2.1468       0.8075       0.8780
   6877.6104       8.7113     146.6499     408.6282      61.7513       0.4203       2.1632       0.8159       0.8874
   6877.9385       8.6818     146.5672     402.9508      62.2284       0.4300       2.1796       0.8242       0.8774
   6878.2666       8.6983     146.2802     400.8455      62.4430       0.4505       2.1775       0.8287       0.8741
   6878.5947       8.7143     145.9836     399.7011      62.5471       0.4722       2.1690       0.8319       0.8681
   6878.9229       8.7143     145.7370     399.2812      62.5187       0.4928       2.1539       0.8341       0.8543
   6879.2510       8.7078     145.6315     398.9322      62.1708       0.4976       2.1436       0.8385       0.8499
   6879.5791       8.7044     145.5326     398.6745      61.7862       0.4922       2.1376       0.8422       0.8476
   6879.9072       8.7124     145.3658     398.6049      61.5015       0.4709       2.1395       0.8428       0.8453
   6880.2354       8.7062     144.9799     398.5881      60.2901       0.4626       2.1440       0.8448       0.8660
   6880.5635       8.6967     144.6759     398.5881      59.0313       0.4546       2.1485       0.8496       0.8862
   6880.8916       8.6914     144.8605     398.5881      58.5714       0.4343       2.1504       0.8615       0.8813
   6881.2197       8.6956     145.0473     398.0016      57.4874       0.4450       2.1496       0.8724       0.8969
   6881.5474       8.7016     145.2003     397.2395      56.6411       0.4634       2.1475       0.8831       0.9168
   6881.8755       8.6989     145.2040     396.7433      57.9079       0.4616       2.1449       0.8947       0.9193
   6882.2036       8.6998     145.1850     396.5707      58.2673       0.4691       2.1431       0.9045       0.9277
   6882.5317       8.6987     145.1314     396.5631      58.0454       0.4767       2.1415       0.9115       0.9416
   6882.8599       8.6746     144.9360     396.5631      57.0733       0.4553       2.1383       0.9071       0.9710
   6883.1880       8.6406     144.7046     396.5631      55.7053       0.4466       2.1338       0.8826       0.9996
   6883.5161       8.6054     144.4374     396.5631      54.0110       0.4450       2.1287       0.8448       1.0253
   6883.8442       8.6188     144.0383     396.5631      51.5764       0.4367       2.1254       0.7977       1.0261
   6884.1724       8.6810     143.8645     396.5631      50.8184       0.4487       2.1255       0.7726       0.8618
   6884.5005       8.7781     143.8616     396.5631      51.4747       0.4749       2.1283       0.7662       0.5926
   6884.8286       8.8343     143.8454     396.5631      55.2741       0.4726       2.1355       0.8061       0.7723
   6885.1567       8.8695     143.8245     396.5997      59.7608       0.4614       2.1390       0.8352       0.8616
   6885.4844       8.8856     143.7994     396.6704      64.9113       0.4419       2.1390       0.8544       0.8677
   6885.8125       8.8856     144.2463     396.6704      65.9002       0.4329       2.1377       0.8633       0.8681
   6886.1406       8.7983     144.4908     396.6704      66.2704       0.4264       2.1361       0.8729       0.8754
   6886.4688       8.6135     144.5066     396.6704      65.9395       0.4229       2.1341       0.8833       0.8904
   6886.7969       8.6576     145.2187     397.1372      64.2326       0.4267       2.1352       0.8896       0.8960
   6887.1250       8.6649     145.6798     400.4839      63.6948       0.4369       2.1377       0.8926       0.9017
   6887.4531       8.6061     145.7483     407.7082      64.8415       0.4554       2.1416       0.8914       0.9082
   6887.7812       8.6965     145.5973     409.8690      64.5325       0.4568       2.1420       0.8795       0.9009
   6888.1094       8.7431     145.4878     412.4376      64.8763       0.4605       2.1413       0.8646       0.8952
   6888.4375       8.6896     145.4878     416.6164      66.5723       0.4711       2.1393       0.8466       0.8945
   6888.7656       8.7228     147.2252     421.4989      66.3172       0.4756       2.1301       0.8282       0.9117
   6889.0933       8.7357     148.8058     425.1201      65.4164       0.4848       2.1206       0.8254       0.9429
   6889.4214       8.6768     149.4466     425.9069      63.8780       0.5058       2.1134       0.8548       0.9961
   6889.7495       8.6783     148.2981     424.0308      62.8140       0.5249       2.1062       0.8724       0.9893
   6890.0776       8.6899     147.0566     421.8001      62.4154       0.5286       2.0995       0.8873       0.9636
   6890.4058       8.6899     146.6972     420.3266      63.4231       0.4940       2.0943       0.9028       0.9268
   6890.7339       8.6291     146.5272     419.6959      65.3904       0.4656       2.0880       0.8941       0.8788
   6891.0620       8.5881     146.4573     419.4598      67.1134       0.4384       2.0841       0.8794       0.8500
