#
#   Created by  : [OpenWorks] Log Export Utility (LEXP)
#   Created on  : 2002-11-13 08:57:04
#   Project     : NILE8
#   User        : TAREM1
#   Interpreter : MTR
#
#------------------------------------------------------------------------------
~VERSION INFORMATION
VERS. 2.0 : CWLS Log ASCII Standard - version 2.0
WRAP.  NO : One line per depth step
~WELL INFORMATION
#MNEMONIC   .UNIT                                           VALUE :DESCRIPTION
#------------------------------------------------------------------------------
STRT        .FT                                         3382.5393 :START DEPTH
STOP        .FT                                         7091.8491 :STOP DEPTH
STEP        .FT                                            0.3281 :STEP
NULL        .                                           -999.2500 :NULL VALUE
COMP        .                                                  BP :COMPANY
WELL        .                                             Ji 49-1 :WELL
FLD         .                                             UNKNOWN :FIELD
LOC         .                                             UNKNOWN :LOCATION
CNTY        .                                             UNKNOWN :COUNTY
STAT        .                                    NORTH ALEXANDRIA :STATE
CTRY        .                                               EGYPT :COUNTRY
SRVC        .                                             UNKNOWN :SERVICE COMPANY
DATE        .                                             UNKNOWN :LOG DATE
UWI         .                                        EGYPT2231100 :UNIQUE WELL ID
XCOORD      .                                       508206.000000 :SURFACE X
YCOORD      .                                      1015098.000000 :SURFACE Y
LAT         .                                           31.844903 :LATITUDE
LON         .                                           29.871761 :LONGITUDE
ELEV        .FT                                           75.4592 :SURFACE ELEV
ELEV_TYPE   .                                                  KB :ELEV TYPE
~CURVE INFORMATION
#MNEMONIC.UNIT        API CODE       : CURVE DESCRIPTION
#------------------------------------------------------------------------------
DEPTH    .FT                         : Measured Depth
CALI     .inches      UNKNOWN        : CALI:PETROWORKS:rC:NONE:v1 
DTCO     .us/ft       UNKNOWN        : DTCO:PETROWORKS:rC:NONE:v1 
DTSM     .us/ft       UNKNOWN        : DTSM:DTSM-Load:r1:MAIN:v2 
GR       .API         UNKNOWN        : GR:PETROWORKS:rC:NONE:v4 
NPHI     .v/v_decimal UNKNOWN        : NPHI:PETROWORKS:rC:NONE:v1 
RHOBED   .g/cm3       UNKNOWN        : RHOBED:PETROWORKS:rC:NONE:v5 
RS       .ohm-m       UNKNOWN        : RS:PETROWORKS:rC:NONE:v2 
RT       .ohm-m       UNKNOWN        : RT:PETROWORKS:rC:NONE:v2 
~A     DEPTH         CALI         DTCO         DTSM           GR         NPHI       RHOBED           RS           RT
# ...
   6483.9106       9.5950     163.5820     470.8682      64.6027       0.6425       1.8962       0.6751       0.8643
   6484.2388       9.7960     163.6975     470.5070      63.4028       0.6348       1.8915       0.7238       0.8433
   6484.5669      10.0514     163.3007     468.8658      61.9468       0.6303       1.8930       0.7821       0.8301
   6484.8950      10.5171     160.8367     463.4285      61.7046       0.6210       1.9055       0.7921       0.8492
   6485.2231      11.1407     160.1176     460.7234      60.2167       0.5965       1.9208       0.8297       0.8965
   6485.5513      11.4478     159.7238     458.5168      59.5370       0.5712       1.9417       0.8675       0.9746
   6485.8789      10.2113     157.8805     453.9966      64.0913       0.5671       1.9811       0.8623       1.1339
   6486.2070       9.8484     156.7345     450.6988      64.7793       0.5419       2.0138       0.7875       1.1886
   6486.5352       9.8281     156.0279     448.2901      63.8564       0.5169       2.0385       0.6882       1.1749
   6486.8633       9.3384     155.8923     447.5643      65.5970       0.5531       2.0352       0.6440       1.0616
   6487.1914       9.1413     155.5505     446.5487      65.0005       0.5592       2.0332       0.5683       0.9627
   6487.5195       9.2039     155.1157     445.4262      62.8532       0.5513       2.0309       0.4901       0.8810
   6487.8477      10.0202     154.9614     444.9124      59.9231       0.5803       2.0197       0.5583       0.8751
   6488.1758       9.8982     154.8123     444.5789      59.3498       0.5718       2.0195       0.6357       0.8375
   6488.5039       9.1486     154.7953     444.6798      60.3848       0.5389       2.0266       0.7319       0.7797
   6488.8320       9.5019     157.1172     450.2801      60.1359       0.5652       2.0187       1.0472       0.7779
   6489.1602       9.8169     158.2272     453.5603      59.8858       0.5858       2.0129       1.1274       0.7868
   6489.4883      10.0965     158.2539     454.7618      59.6353       0.6010       2.0090       0.9980       0.8053
   6489.8159      10.2739     160.6505     460.7742      57.6812       0.6287       2.0110       0.8305       0.8166
   6490.1440      10.4260     161.8919     464.4514      56.8451       0.6379       2.0079       0.7231       0.8538
   6490.4722      10.5518     161.8921     465.6249      57.1810       0.6272       1.9994       0.6802       0.9191
   6490.8003      11.0357     161.8940     463.8186      54.9455       0.6261       1.9952       0.5998       0.9179
   6491.1284      10.8230     160.1527     458.5994      54.9848       0.6251       1.9868       0.5868       0.9434
   6491.4565       9.6749     156.1194     449.0731      58.3166       0.6237       1.9723       0.6648       1.0083
   6491.7847      10.0568     155.5347     445.8894      54.5383       0.6505       1.9817       0.7188       1.0310
   6492.1128      10.5013     154.3009     441.7756      51.3339       0.6494       1.9986       0.8028       1.0392
   6492.4409      10.8010     151.4652     435.1387      49.9782       0.5990       2.0235       0.9386       1.0308
   6492.7690      10.1841     151.0222     433.5305      51.8854       0.5510       2.0518       1.0145       1.0078
   6493.0972       9.5154     150.9920     433.1909      53.5529       0.5349       2.0776       1.0018       0.9623
   6493.4253       9.0363     151.0080     433.7401      53.4147       0.5814       2.0973       0.8331       0.8770
   6493.7529       8.9402     152.4609     438.1752      53.0323       0.6568       2.0999       0.8671       0.9075
   6494.0811       8.9345     154.6102     444.1476      53.0601       0.7444       2.0999       0.9172       0.9716
   6494.4092       8.9345     157.6585     451.6964      54.2405       0.8455       2.1032       0.8907       1.0528
   6494.7373       8.9304     158.3681     455.3759      58.8369       0.8348       2.0970       0.8425       1.0313
   6495.0654       8.9276     159.3153     459.4136      63.6503       0.8000       2.0813       0.7914       0.9317
   6495.3936       8.9330     163.3025     468.3711      65.8009       0.7988       2.0452       0.7526       0.6849
   6495.7217       8.9345     164.4850     471.5789      67.7016       0.7804       1.9913       0.7220       0.6624
   6496.0498       9.0065     164.0201     471.2053      69.1661       0.7566       1.9337       0.7021       0.7339
   6496.3779       9.3812     161.3048     465.3576      69.2101       0.7391       1.8904       0.7138       0.8258
   6496.7061      10.1240     160.8046     463.4252      66.5248       0.7115       1.8808       0.7300       0.8880
   6497.0342      10.7808     161.2030     463.1790      63.7188       0.6762       1.8927       0.7512       0.9377
   6497.3618       9.8413     160.3986     461.3883      66.7917       0.6249       1.9320       0.7898       1.0005
   6497.6899       9.4102     159.9706     460.1365      67.7457       0.5935       1.9739       0.8227       0.9710
   6498.0181       9.2875     159.7462     459.1664      67.4741       0.5752       2.0123       0.8411       0.8880
   6498.3462       9.1430     159.2658     457.7393      69.1276       0.5660       2.0051       0.7541       0.8344
   6498.6743       9.0078     158.7448     456.2437      69.6744       0.5742       1.9870       0.6737       0.9029
   6499.0024       8.8872     158.2325     454.7998      69.3255       0.5948       1.9606       0.6012       1.0588
   6499.3306       8.9192     158.4972     455.3936      67.9649       0.5990       1.9304       0.5874       1.1314
   6499.6587       9.1113     158.6264     455.7523      67.1007       0.6039       1.9157       0.6405       1.0741
   6499.9868       9.4482     158.6325     455.8975      66.6952       0.6095       1.9150       0.7544       0.8989
   6500.3149       9.0949     155.8835     448.9920      67.5984       0.6413       1.9452       0.8159       0.9024
   6500.6431       8.9202     154.4350     444.7118      67.0134       0.6500       1.9741       0.8692       0.9555
   6500.9712       8.9416     154.4180     443.3217      64.7657       0.6332       2.0017       0.9134       1.0631
   6501.2988       8.9299     154.4238     443.2741      62.7736       0.6318       2.0086       0.8055       1.0556
   6501.6270       8.9188     154.4321     443.2972      60.6363       0.6381       2.0126       0.7224       1.0399
   6501.9551       8.9108     154.4424     443.3243      58.2896       0.6534       2.0139       0.6828       1.0209
   6502.2832       9.0117     154.4416     443.7309      58.3512       0.6710       1.9962       0.6831       0.8185
   6502.6113       9.0325     154.8089     444.8528      57.9095       0.6636       1.9770       0.6932       0.7214
   6502.9395       8.9040     155.7788     447.0763      56.2183       0.6150       1.9586       0.7123       0.8276
   6503.2676       9.0964     155.9177     448.4582      56.4345       0.6029       1.9369       0.9873       0.9405
   6503.5957       9.4757     156.6830     451.0197      56.3910       0.5945       1.9224       1.1326       1.0490
   6503.9238      10.1234     158.9902     456.2393      55.2473       0.5814       1.9237       0.9307       1.1464
   6504.2520       9.5700     159.4604     457.9402      58.3889       0.6105       1.9410       0.8584       1.2094
   6504.5801       8.9758     159.5433     458.6936      61.7443       0.6389       1.9562       0.8008       1.2252
   6504.9082       8.9919     159.7501     459.1663      62.3936       0.6405       1.9568       0.7023       1.1429
   6505.2358       9.0140     159.7910     459.3169      62.3394       0.6457       1.9297       0.7565       1.1380
   6505.5640       9.0646     159.7828     458.9399      62.1583       0.6438       1.9261       0.8277       1.1157
   6505.8921       9.2011     159.7858     457.1843      62.2822       0.6156       1.9240       0.7977       0.9582
   6506.2202       9.5282     156.6855     449.5704      62.3730       0.5738       1.9219       0.7367       0.8943
