#
#   Created by  : [OpenWorks] Log Export Utility (LEXP)
#   Created on  : 2002-11-13 08:57:04
#   Project     : NILE8
#   User        : TAREM1
#   Interpreter : MTR
#
#------------------------------------------------------------------------------
~VERSION INFORMATION
VERS. 2.0 : CWLS Log ASCII Standard - version 2.0
WRAP.  NO : One line per depth step
~WELL INFORMATION
#MNEMONIC   .UNIT                                           VALUE :DESCRIPTION
#------------------------------------------------------------------------------
STRT        .FT                                         3382.5393 :START DEPTH
STOP        .FT                                         7091.8491 :STOP DEPTH
STEP        .FT                                            0.3281 :STEP
NULL        .                                           -999.2500 :NULL VALUE
COMP        .                                                  BP :COMPANY
WELL        .                                             Ji 49-1 :WELL
FLD         .                                             UNKNOWN :FIELD
LOC         .                                             UNKNOWN :LOCATION
CNTY        .                                             UNKNOWN :COUNTY
STAT        .                                    NORTH ALEXANDRIA :STATE
CTRY        .                                               EGYPT :COUNTRY
SRVC        .                                             UNKNOWN :SERVICE COMPANY
DATE        .                                             UNKNOWN :LOG DATE
UWI         .                                        EGYPT2231100 :UNIQUE WELL ID
XCOORD      .                                       508206.000000 :SURFACE X
YCOORD      .                                      1015098.000000 :SURFACE Y
LAT         .                                           31.844903 :LATITUDE
LON         .                                           29.871761 :LONGITUDE
ELEV        .FT                                           75.4592 :SURFACE ELEV
ELEV_TYPE   .                                                  KB :ELEV TYPE
~CURVE INFORMATION
#MNEMONIC.UNIT        API CODE       : CURVE DESCRIPTION
#------------------------------------------------------------------------------
DEPTH    .FT                         : Measured Depth
CALI     .inches      UNKNOWN        : CALI:PETROWORKS:rC:NONE:v1 
DTCO     .us/ft       UNKNOWN        : DTCO:PETROWORKS:rC:NONE:v1 
DTSM     .us/ft       UNKNOWN        : DTSM:DTSM-Load:r1:MAIN:v2 
GR       .API         UNKNOWN        : GR:PETROWORKS:rC:NONE:v4 
NPHI     .v/v_decimal UNKNOWN        : NPHI:PETROWORKS:rC:NONE:v1 
RHOBED   .g/cm3       UNKNOWN        : RHOBED:PETROWORKS:rC:NONE:v5 
RS       .ohm-m       UNKNOWN        : RS:PETROWORKS:rC:NONE:v2 
RT       .ohm-m       UNKNOWN        : RT:PETROWORKS:rC:NONE:v2 
~A     DEPTH         CALI         DTCO         DTSM           GR         NPHI       RHOBED           RS           RT
# ...
   5872.6914      12.3760     182.3703    -999.2500      57.1100       0.4657       1.9880       0.7560       0.6100
   5873.0195      12.3620     182.4523    -999.2500      57.3450       0.4457       1.9890       0.7695       0.6300
   5873.3477      12.3680     181.8342    -999.2500      57.5800       0.4214       1.9900       0.7830       0.6500
   5873.6758      12.3580     180.6292    -999.2500      57.8150       0.4057       1.9940       0.8100       0.6700
   5874.0039      12.3120     179.4637    -999.2500      58.0500       0.4086       1.9980       0.8370       0.6900
   5874.3320      12.2840     179.4637    -999.2500      57.0250       0.4286       2.0020       0.8640       0.7100
   5874.6602      12.3100     179.4637    -999.2500      56.0000       0.4500       2.0060       0.8910       0.7300
   5874.9883      12.4020     178.8950    -999.2500      55.4150       0.4671       2.0100       0.8910       0.7200
   5875.3159      12.4920     178.8950    -999.2500      54.8300       0.4786       2.0140       0.8775       0.7000
   5875.6440      12.5070     178.3352    -999.2500      54.5600       0.5000       2.0175       0.8505       0.6900
   5875.9722      12.4950     178.3352    -999.2500      54.2900       0.5329       2.0210       0.8370       0.6800
   5876.3003      12.4810     178.3352    -999.2500      54.2900       0.5614       2.0250       0.8370       0.6800
   5876.6284      12.4440     178.3352    -999.2500      54.2900       0.5743       2.0290       0.8505       0.6900
   5876.9565      12.4050     178.3352    -999.2500      54.2900       0.5743       2.0315       0.8640       0.7000
   5877.2847      12.3850     178.3352    -999.2500      54.2900       0.5686       2.0340       0.8775       0.7200
   5877.6128      12.3760     178.3352    -999.2500      54.3350       0.5600       2.0305       0.8775       0.7200
   5877.9409      12.3780     178.5130    -999.2500      54.3800       0.5386       2.0270       0.8775       0.7100
   5878.2690      12.3910     178.6019    -999.2500      54.4500       0.5057       2.0235       0.8775       0.7100
   5878.5972      12.4040     178.6019    -999.2500      54.5200       0.4800       2.0200       0.8640       0.7100
   5878.9253      12.4180     178.6019    -999.2500      54.5850       0.4714       2.0165       0.8640       0.7100
   5879.2529      12.4170     178.6019    -999.2500      54.6500       0.4786       2.0130       0.8640       0.7100
   5879.5811      12.3990     180.3083    -999.2500      54.7200       0.4900       2.0095       0.8235       0.6600
   5879.9092      12.4000     181.4932    -999.2500      54.7900       0.4986       2.0060       0.7965       0.6400
   5880.2373      12.4210     182.1008    -999.2500      54.8950       0.5014       2.0030       0.7830       0.6200
   5880.5654      12.4350     183.3481    -999.2500      55.0000       0.4957       2.0000       0.7560       0.6100
   5880.8936      12.4400     183.9886    -999.2500      55.1150       0.4814       2.0015       0.7425       0.6000
   5881.2217      12.4340     183.9886    -999.2500      55.2300       0.4614       2.0030       0.7425       0.6000
   5881.5498      12.4180     183.9886    -999.2500      55.3450       0.4429       2.0040       0.7425       0.6000
   5881.8779      12.4070     184.7296    -999.2500      55.4600       0.4286       2.0050       0.7290       0.5900
   5882.2061      12.3960     185.5718    -999.2500      55.5750       0.4200       2.0060       0.7155       0.5800
   5882.5342      12.3780     185.6607    -999.2500      55.6900       0.4171       2.0070       0.7020       0.5700
   5882.8618      12.3770     185.6607    -999.2500      55.8050       0.4171       2.0080       0.7155       0.5800
   5883.1899      12.3830     185.6607    -999.2500      55.9200       0.4214       2.0090       0.7155       0.5800
   5883.5181      12.3870     185.6607    -999.2500      56.0350       0.4486       2.0105       0.7155       0.5700
   5883.8462      12.3960     185.6607    -999.2500      56.1500       0.5057       2.0120       0.7020       0.5600
   5884.1743      12.4010     186.3377    -999.2500      56.2650       0.5771       2.0085       0.7020       0.5700
   5884.5024      12.3860     186.3377    -999.2500      56.3800       0.6371       2.0050       0.7155       0.5800
   5884.8306      12.3470     186.3377    -999.2500      56.5200       0.6700       2.0020       0.7155       0.5700
   5885.1587      12.2860     186.1600    -999.2500      56.6600       0.6857       1.9990       0.7020       0.5700
   5885.4868      12.2180     186.0414    -999.2500      56.8050       0.6957       1.9955       0.7020       0.5700
   5885.8149      12.2030     185.9822    -999.2500      56.9500       0.6843       1.9920       0.6885       0.5600
   5886.1431      12.2550     185.9822    -999.2500      57.1000       0.6386       1.9885       0.6615       0.5300
   5886.4712      12.3720     185.9822    -999.2500      57.2500       0.5771       1.9850       0.6480       0.5300
   5886.7988      12.5210     185.2711    -999.2500      57.3950       0.5271       1.9820       0.6480       0.5200
   5887.1270      12.5920     183.8488    -999.2500      57.5400       0.5057       1.9790       0.6615       0.5300
   5887.4551      12.7090     181.5378    -999.2500      57.6900       0.5100       1.9780       0.6750       0.5400
   5887.7832      12.9420     179.7600    -999.2500      57.8400       0.5243       1.9770       0.6885       0.5500
   5888.1113      12.9520     178.6385    -999.2500      57.9450       0.5400       1.9770       0.7155       0.5600
   5888.4395      12.6420     178.6385    -999.2500      58.0500       0.5543       1.9770       0.7155       0.5700
   5888.7676      12.3560     178.6385    -999.2500      58.0500       0.5657       1.9770       0.7155       0.5800
   5889.0957      12.2640     177.9741    -999.2500      58.0500       0.5743       1.9770       0.7290       0.5800
   5889.4238      12.2550     177.9741    -999.2500      58.0500       0.5800       1.9770       0.7290       0.5900
   5889.7520      12.2450     177.9741    -999.2500      58.0500       0.5800       1.9770       0.7290       0.5900
   5890.0801      12.2390     177.7074    -999.2500      58.0500       0.5743       1.9800       0.7290       0.5900
   5890.4082      12.2370     176.8774    -999.2500      58.0500       0.5657       1.9830       0.7425       0.5900
   5890.7358      12.2770     176.2370    -999.2500      58.0500       0.5557       1.9875       0.7560       0.6100
   5891.0640      12.3540     175.1674    -999.2500      58.0500       0.5414       1.9920       0.7830       0.6200
   5891.3921      12.3580     174.8266    -999.2500      57.9200       0.5243       1.9965       0.7965       0.6300
   5891.7202      12.2980     175.0043    -999.2500      57.7900       0.5071       2.0010       0.7965       0.6300
   5892.0483      12.2690     174.9403    -999.2500      57.2450       0.4914       2.0055       0.8100       0.6400
   5892.3765      12.3030     175.8292    -999.2500      56.7000       0.4800       2.0100       0.8100       0.6400
   5892.7046      12.3430     175.4194    -999.2500      56.1600       0.4786       2.0120       0.8235       0.6500
   5893.0327      12.3090     175.3748    -999.2500      55.6200       0.4900       2.0140       0.8370       0.6600
   5893.3608      12.2830     174.9397    -999.2500      55.0750       0.5100       2.0155       0.8775       0.7000
   5893.6890      12.3100     175.1174    -999.2500      54.5300       0.5357       2.0170       0.8910       0.7100
   5894.0171      12.3300     175.1174    -999.2500      53.9900       0.5571       2.0185       0.8910       0.7100
   5894.3447      12.3330     176.5397    -999.2500      53.4500       0.5714       2.0200       0.8910       0.7200
   5894.6729      12.3340     176.5397    -999.2500      52.9100       0.5814       2.0215       0.8910       0.7200
   5895.0010      12.3520     176.5397    -999.2500      52.3700       0.5829       2.0230       0.8910       0.7200
